,ID,Arrondissement,Nom_parc_lieu,Proximité_jeux_repère,Intersection,Etat,Date_installation,Remarque,Precision_localisation,X,Y,long,lat
0,1,Saint-Léonard,Delorme,Bocce,rue Loranger/rue Péguy,,,,orthophotographies,297819.89,5050237.94,-73.589462375603,45.5920117541965
1,2,Saint-Léonard,Delorme,Pavillon,rue Loranger/rue Péguy,,,,orthophotographies,297773.67,5050257.68,-73.59005504946691,45.5921889147626
2,3,Saint-Léonard,Delorme,Pavillon,rue Loranger/rue Péguy,,,,orthophotographies,297774.77,5050256.8,-73.590040938345,45.59218100739079
3,4,Saint-Léonard,Delorme,montagne,rue Loranger/rue Péguy,,,,orthophotographies,297855.21,5050101.09,-73.5890077418093,45.590780693244106
4,5,Saint-Léonard,Delorme,Basketball et soccer,entrée boulevard Robert,,,,orthophotographies,297654.59,5050300.62,-73.5915819002069,45.5925740874714
5,6,Saint-Léonard,Ferland,Pavillon,rue Belcourt /boulevard Lavoisier,,,,orthophotographies,297118.07,5050704.0,-73.59846475305879,45.596198090959504
6,7,Saint-Léonard,Ferland,Piscine,rue Belcourt /boulevard Lavoisier,,,accès restreint,orthophotographies,297138.85,5050685.88,-73.5981981170499,45.596035271573804
7,8,Saint-Léonard,Pie-XII,Bocce,rue Jean-Marie Lefebvre/boul. Lavoisier,,,,orthophotographies,296529.51,5050026.57,-73.6059972563072,45.590095639999106
8,9,Saint-Léonard,Pie-XII,Basketball,rue Dujarié/rue Le Corbusier,,,,orthophotographies,296526.98,5049953.5,-73.6060284435696,45.58943810576321
9,10,Saint-Léonard,Pie-XII,Piscine,rue Dujarié/rue de Nevers,,,accès restreint,orthophotographies,296464.97,5049913.19,-73.60682248493559,45.5890746447919
10,11,Saint-Léonard,Pie-XII,Piscine,rue Dujarié/rue de Nevers,,,accès restreint,orthophotographies,296464.26,5049912.13,-73.6068315662484,45.5890650981076
11,12,Saint-Léonard,Coubertin,Pavillon,rue Valéry/rue Narbonne,,,,orthophotographies,296215.93,5049339.91,-73.6100041217273,45.583913080807505
12,13,Saint-Léonard,Coubertin,Pavillon,rue Valéry/rue Narbonne,,,,orthophotographies,296215.93,5049338.32,-73.6100040937848,45.5838987735332
13,14,Saint-Léonard,Luigi-Pirandello,Bocce,rue Jean-Rivard/rue de Nice,,,,orthophotographies,296717.63,5048690.13,-73.6035641400041,45.5780721805316
14,15,Saint-Léonard,Hébert (Stade),Baseball,rue Colbert/boul. Métropolitain Est,,,,orthophotographies,297450.41,5048206.42,-73.5941673390367,45.57372773784821
15,16,Saint-Léonard,Hébert (Stade),Soccer,rue de Viterbe/rue de Viterbe,,,,orthophotographies,297595.18,5048152.18,-73.5923116621237,45.5732411836133
16,17,Saint-Léonard,Hébert (Stade),Pavillon,rue Colbert/boul. Provencher,,,,orthophotographies,297620.82,5048037.96,-73.5919814726014,45.57221366181721
17,18,Saint-Léonard,Hébert (Stade),Stade (l'entrée sous-sol),rue Colbert/boul. Métropolitain Est,,,,orthophotographies,297518.57,5048198.03,-73.5932939085551,45.5736529585964
18,19,Saint-Léonard,Hébert (Parc),Piscine,rue Colbert/boul. Provencher,,,accès restreint,orthophotographies,297589.11,5048062.64,-73.5923881127418,45.5724354122334
19,20,Saint-Léonard,Hébert (Parc),Piscine,rue Colbert/boul. Provencher,,,accès restreint,orthophotographies,297587.9,5048061.19,-73.5924035942125,45.5724223521469
20,21,Saint-Léonard,Hébert (Parc),Piscine,rue Colbert/boul. Provencher,,,accès restreint,orthophotographies,297575.68,5048086.1,-73.5925605285234,45.572646373263105
21,22,Saint-Léonard,Hébert (Parc),Piscine,rue Colbert/boul. Provencher,,,accès restreint,orthophotographies,297577.76,5048084.96,-73.592533862021,45.5726361367813
22,23,Saint-Léonard,Hébert (Parc),Piscine,rue Colbert/boul. Provencher,,,accès restreint,orthophotographies,297579.26,5048083.81,-73.5925146265321,45.5726258042923
23,24,Saint-Léonard,Hébert (Parc),Piscine,rue Colbert/boul. Provencher,,,accès restreint,orthophotographies,297581.13,5048082.8,-73.5924906525568,45.572616735401404
24,25,Saint-Léonard,Hébert (Parc),Carré de sable,rue Colbert/boul. Provencher,,,,orthophotographies,297575.08,5048019.23,-73.5925672274284,45.5720446501215
25,26,Saint-Léonard,Ladauversière,Bocce,rue de Meudon/boul. Lacordaire,,,,orthophotographies,298274.39,5049047.39,-73.5836212582356,45.581303255285704
26,27,Saint-Léonard,Ladauversière,Piscine,rue de Meudon/boul. Lacordaire,,,accès restreint,orthophotographies,298309.22,5049078.31,-73.5831753467495,45.581581808452796
27,28,Saint-Léonard,Ladauversière,Piscine,rue de Meudon/boul. Lacordaire,,,accès restreint,orthophotographies,298350.2,5049103.86,-73.5826505511845,45.581812096063096
28,29,Saint-Léonard,Ladauversière,Piscine,rue de Meudon/boul. Lacordaire,,,accès restreint,orthophotographies,298358.77,5049108.4,-73.5825407914425,45.5818530277291
29,30,Saint-Léonard,Ladauversière,Piscine,rue de Meudon/boul. Lacordaire,,,accès restreint,orthophotographies,298312.39,5049071.44,-73.5831346339605,45.581520019724294
30,31,Saint-Léonard,Ladauversière,Baseball,rue Jean-Talon Est/rue de Pontoise,,,,orthophotographies,298489.01,5049176.95,-73.58087272534459,45.5824710546093
31,32,Saint-Léonard,Giuseppe-Garibaldi,Piscine,rue de Côme/rue La Dauversière,,,accès restreint,orthophotographies,299177.5,5049649.24,-73.5720554549725,45.586726764106
32,33,Saint-Léonard,Giuseppe-Garibaldi,Pavillon,rue de Côme/rue La Dauversière,,,,orthophotographies,299163.16,5049603.25,-73.5722386990733,45.5863128166389
33,34,Saint-Léonard,Giuseppe-Garibaldi,Pavillon,rue de Côme/rue La Dauversière,,,,orthophotographies,299160.52,5049604.25,-73.5722725434083,45.586321793531
34,35,Saint-Léonard,Giuseppe-Garibaldi,Baseball,rue Liénard/rue La Dauversière,,,,orthophotographies,299039.32,5049611.05,-73.573825856362,45.586381988703096
35,36,Saint-Léonard,Saint-Léonard,Pavillon de la scène,boul. Lacordaire/rue des Galets,,,,orthophotographies,297412.2,5049561.24,-73.59467739470371,45.5859184052737
36,37,Saint-Léonard,Saint-Léonard,Pavillon de la scène,boul. Lacordaire/rue des Galets,,,,orthophotographies,297418.27,5049552.31,-73.5945994705437,45.5858381150145
37,38,Saint-Léonard,Saint-Léonard,Pavillon de la scène,boul. Lacordaire/rue des Galets,,,,orthophotographies,297425.29,5049566.73,-73.5945097246301,45.585967944774
38,39,Saint-Léonard,Saint-Léonard,Pavillon de la scène,boul. Lacordaire/rue des Galets,,,,orthophotographies,297428.27,5049557.43,-73.59447139447491,45.5858842922942
39,40,Saint-Léonard,aréna Martin-Brodeur,Soccer,rue des Galets/rue de l'Aunis,,,,orthophotographies,297119.5,5049569.42,-73.59842857683391,45.5859888409044
40,41,Saint-Léonard,aréna Martin-Brodeur,Aréna,rue des Galets/rue de l'Aunis,,,,orthophotographies,297102.72,5049449.89,-73.5986417349467,45.584913090232895
41,42,Saint-Léonard,aréna Martin-Brodeur,Aréna,rue des Galets/rue de l'Aunis,,,,orthophotographies,297107.02,5049453.19,-73.5985866818955,45.58494283214971
42,43,Ahuntsic-Cartierville,Prieur,Jardins communautaires,rue Sackville/rue Prieur Est,,,accès restreint,orthophotographies,293151.73,5048680.08,-73.6492557330476,45.577931187294205
43,44,Ahuntsic-Cartierville,,Jardins communautaires,rue Frémont/avenue De Chateaubriand,,,accès restreint,orthophotographies,292953.69,5045875.79,-73.6517253756271,45.5526940005986
44,45,Ahuntsic-Cartierville,,Jardins communautaires,rue Deschamps/rue Letellier,,,accès restreint,orthophotographies,289589.09,5044953.59,-73.69478967036291,45.54433039908
45,46,Ahuntsic-Cartierville,,Jardins communautaires,rue Deschamps/rue Letellier,,,accès restreint,orthophotographies,289590.59,5044960.86,-73.69477068749799,45.54439584956679
46,47,Ahuntsic-Cartierville,du Petit-Bois-Franc,Jardins communautaires,rue Dudemaine/rue Grenet,,,accès restreint,orthophotographies,288688.91,5042752.27,-73.70624480988009,45.5245019742243
47,48,Ahuntsic-Cartierville,Ahuntsic (près de),Jardins communautaires,avenue Durham/boul. Henri-Bourassa Est,,,accès restreint,orthophotographies,291837.96,5046357.6,-73.6660281500602,45.5570096029911
48,49,Ahuntsic-Cartierville,Marcelin-Wilson,Jardins communautaires,avenue Marcelin-Wilson/rue Defoy,,,accès restreint,orthophotographies,290512.32,5044177.23,-73.6829442674349,45.5373640079733
49,50,Ahuntsic-Cartierville,Saint-Sulpice (JC),Jardins communautaires,ave Émile-Journault/ave André-Grasset,,,accès restreint,orthophotographies,294235.31,5046379.95,-73.63532155734309,45.5572512175254
50,51,Ahuntsic-Cartierville,Saint-Sulpice (JC),Jardins communautaires,ave Émile-Journault/ave André-Grasset,,,accès restreint,orthophotographies,294184.58,5046303.11,-73.63596968103559,45.5565590150628
51,52,Ahuntsic-Cartierville,Du Sault-au-Récollets (JC),Jardins communautaires,rue du Pressoir (tourne-bride)/boul. Gouin Est,,,accès restreint,orthophotographies,292333.66,5048494.82,-73.6597333507135,45.576249989769295
52,53,Ahuntsic-Cartierville,Ahuntsic,,rue Lajeunesse/rue Prieur Est,,,,orthophotographies,291787.23,5046257.8,-73.6666752827003,45.5561106256678
53,54,Ahuntsic-Cartierville,Avila-Vidal,Modules pour enfants,rue Filion/rue de la Paix,,,,orthophotographies,289515.25,5043300.34,-73.69568364820829,45.5294523034188
54,55,Ahuntsic-Cartierville,De Beauséjour,,boul. Gouin Ouest/rue Henri-D'Arles,,,,orthophotographies,286655.11,5043216.86,-73.7322973382624,45.5286325299218
55,56,Ahuntsic-Cartierville,Du Cardinal-Paul-Émile-Léger,,rue Chabanel Est/ave De Galinée,,,,orthophotographies,293685.77,5046588.35,-73.6423652483467,45.5591179113194
56,57,Ahuntsic-Cartierville,Du Boisé-De-Saint-Sulpice,,ave Olivier-Maurault/rue Legendre Est,,,,orthophotographies,293771.51,5046057.51,-73.64125501600941,45.55434260765671
57,58,Ahuntsic-Cartierville,De Bordeaux,,rue Viel/boul. de l'Acadie,,,,orthophotographies,289197.05,5044677.87,-73.6998012836626,45.541840713464495
58,59,Ahuntsic-Cartierville,Roland-Giguère,,Place de l'Acadie (tourne-bride),,,,orthophotographies,290685.06,5043602.12,-73.68071588135629,45.5321924961963
59,60,Ahuntsic-Cartierville,D'Auteuil,Baseball,rue Saint-Denis/rue Sauvé Est,,,,orthophotographies,292630.73,5045446.11,-73.65585108684431,45.548822033059
60,61,Ahuntsic-Cartierville,D'Auteuil,Pavillon,rue Saint-Denis/rue Sauvé Est,,,,orthophotographies,292562.6,5045548.7,-73.656726185786,45.5497439773201
61,62,Ahuntsic-Cartierville,D'Auteuil,,rue Saint-Denis/rue Sauvé Est,,,,orthophotographies,292510.0,5045500.53,-73.6573986293738,45.549309601900205
62,63,Ahuntsic-Cartierville,Ahuntsic,,rue Lajeunesse/rue Prieur Est,,,,orthophotographies,292107.24,5046329.48,-73.6625782814415,45.5567615314066
63,64,Ahuntsic-Cartierville,Ahuntsic,,rue Lajeunesse/rue Prieur Est,,,,orthophotographies,292107.24,5046329.48,-73.6625782814415,45.5567615314066
64,65,Ahuntsic-Cartierville,De la Merci,,boul. Gouin Est/rue Poincaré,,,,orthophotographies,289403.22,5045174.2,-73.69717683209109,45.546311432748006
65,66,Ahuntsic-Cartierville,De Mésy,,rue Legault/rue Grenet,,,,orthophotographies,287819.83,5043362.35,-73.7173913333422,45.529971045168196
66,67,Ahuntsic-Cartierville,Des Hirondelles,,rue Fleury Est/rue Larose,,,,orthophotographies,293882.41,5048443.23,-73.6398878627745,45.575811792031296
67,68,Ahuntsic-Cartierville,Des Hirondelles,,rue Fleury Est/rue Larose,,,,orthophotographies,293830.99,5048325.81,-73.64054407328041,45.5747544042729
68,69,Ahuntsic-Cartierville,Des Hirondelles,,rue Fleury Est/rue Larose,,,,orthophotographies,293743.44,5048479.59,-73.6416693125804,45.576136775435295
69,70,Ahuntsic-Cartierville,Des Hirondelles,,rue Fleury Est/rue Larose,,,,orthophotographies,293469.35,5048691.27,-73.64518616496909,45.578037122972795
70,71,Ahuntsic-Cartierville,Gabriel-Lalemant,,rue de Lille/rue Sauvé Est,,,,orthophotographies,293648.93,5047932.46,-73.6428677953635,45.5712120325848
71,72,Ahuntsic-Cartierville,Gabreil-Lalemand,,rue Sauvé Est/rue de Lille,,,,orthophotographies,293655.1,5047941.81,-73.6427889586055,45.57129626547171
72,73,Ahuntsic-Cartierville,Henri-Julien,,rue Saint-Denis/rue Legendre Est,,,,orthophotographies,293660.36,5047951.68,-73.642721792405,45.5713851628507
73,74,Ahuntsic-Cartierville,Henri-Julien,,rue Saint-Denis/rue Legendre Est,,,,orthophotographies,293129.31,5045314.83,-73.6494626952386,45.54764926553921
74,75,Ahuntsic-Cartierville,Henri-Julien,,rue Saint-Denis/rue Legendre Est,,,,orthophotographies,293130.87,5045310.16,-73.6494426055465,45.5476072694801
75,76,Ahuntsic-Cartierville,Henri-Julien,,rue Saint-Denis/rue Legendre Est,,,,orthophotographies,293109.09,5045210.14,-73.6497191443933,45.546706891308204
76,77,Ahuntsic-Cartierville,Henri-Julien,,rue Saint-Denis/rue Legendre Est,,,,orthophotographies,293017.24,5045327.11,-73.6508982296043,45.54775787815289
77,78,Ahuntsic-Cartierville,Henri-Julien,,rue Saint-Denis/rue Legendre Est,,,,orthophotographies,293019.18,5045330.78,-73.6508734730469,45.547790934833706
78,79,Ahuntsic-Cartierville,Henri-Julien,,rue Saint-Denis/rue Legendre Est,,,,orthophotographies,293013.12,5045351.45,-73.6509515792422,45.547976827747895
79,80,Ahuntsic-Cartierville,Henri-Julien,,rue Saint-Denis/rue Legendre Est,,,,orthophotographies,293204.3,5045290.96,-73.64850176061,45.547435727905906
80,81,Ahuntsic-Cartierville,Henri-Julien,,rue Saint-Denis/rue Legendre Est,,,,orthophotographies,292811.77,5045387.69,-73.6535310960871,45.54829949055549
81,82,Ahuntsic-Cartierville,Henri-Julien,,rue Saint-Denis/rue Legendre Est,,,,orthophotographies,292940.52,5045395.48,-73.65188241274629,45.548371791701406
82,83,Ahuntsic-Cartierville,J.-J.-Gagnier,,rue J.-J.-Gagnier/rue Prieur Est,,,,orthophotographies,293186.26,5048936.75,-73.6488193836909,45.5802413529268
83,84,Ahuntsic-Cartierville,Jean-Matucci,,ave. André-Grasset/ave. Émile-Journault,,,,orthophotographies,294303.18,5046270.61,-73.63444987659341,45.556268367658504
84,85,Ahuntsic-Cartierville,Jean-Matucci,,ave. André-Grasset/ave. Émile-Journault,,,,orthophotographies,294309.65,5046247.87,-73.6343665173268,45.556063843335295
85,86,Ahuntsic-Cartierville,Jeanne-Sauvé (parc du pont Ahuntsic),,rue Basile-Routhier/ave. Parc Stanley,,,,orthophotographies,291311.43,5046366.0,-73.67277256773579,45.557075187758706
86,87,Ahuntsic-Cartierville,Lefebvre,,rue Cousineau/rue Laurin,,,,orthophotographies,287416.23,5043075.41,-73.72254826554341,45.52737911656649
87,88,Ahuntsic-Cartierville,Lomer-Gouin,,rue De Saint-Firmin/boul. Gouin Est,,,,orthophotographies,292400.48,5048161.69,-73.6588687254571,45.5732535859795
88,89,Ahuntsic-Cartierville,De Louisbourg,,rue De Louisbourg/rue De Meulles,,,,orthophotographies,288649.87,5043302.87,-73.7067627243823,45.529455553352896
89,90,Ahuntsic-Cartierville,De Louisbourg,,rue De Louisbourg/rue De Meulles,,,,orthophotographies,288616.64,5043185.73,-73.7071842802365,45.5284007181151
90,91,Ahuntsic-Cartierville,De Louisbourg,,rue De Louisbourg/rue De Meulles,,,,orthophotographies,288600.47,5043243.34,-73.70739319718871,45.52891873629989
91,92,Ahuntsic-Cartierville,Marcelin-Wilson,,boul. de l'Acadie/rue Dudemaine,,,,orthophotographies,290331.33,5044135.17,-73.685260469424,45.536981803372
92,93,Ahuntsic-Cartierville,Marcelin-Wilson,,boul. de l'Acadie/rue Dudemaine,,,,orthophotographies,290350.95,5044125.36,-73.6850089618831,45.5368939368997
93,94,Ahuntsic-Cartierville,Marcelin-Wilson,,boul. de l'Acadie/rue Dudemaine,,,,orthophotographies,290367.11,5044112.67,-73.68480167257201,45.536780083018996
94,95,Ahuntsic-Cartierville,Marcelin-Wilson,,boul. de l'Acadie/rue Dudemaine,,,,orthophotographies,290391.92,5044097.09,-73.6844835434965,45.536640402504396
95,96,Ahuntsic-Cartierville,Maurice-Richard,,ave. Park Stanley/rue Basile-Routhier,,,,orthophotographies,291256.0,5046411.88,-73.6734838273432,45.5574869538941
96,97,Ahuntsic-Cartierville,Nicolas-Viel,,boul. Gouin Ouest/rue Saint-Urbain,,,,orthophotographies,290964.72,5045655.96,-73.67719341030379,45.5506792271636
97,98,Ahuntsic-Cartierville,Nicolas-Viel,,boul. Gouin Ouest/rue Saint-Urbain,,,,orthophotographies,290966.02,5045661.89,-73.6771769284716,45.550732612976596
98,99,Ahuntsic-Cartierville,Olympia/Gouin,,boul. Gouin Est/boul. Olympia,,,,orthophotographies,291996.46,5047112.49,-73.6640177269551,45.563805264220896
99,100,Ahuntsic-Cartierville,Stanley/rue piétonne,,ave. Park Stanley/ave. Durham,,,,orthophotographies,291288.51,5046442.36,-73.6730682536757,45.5577618537941
100,101,Ahuntsic-Cartierville,Rosanne-Laflamme,,boul. O'Brien/rue Dudemaine,,,,orthophotographies,289173.31,5043128.27,-73.70005583381821,45.5278963770113
101,102,Ahuntsic-Cartierville,Saint-Alphonse,,ave. Émile-Journault/ave. De Chateaubriand,,,,orthophotographies,293831.96,5045535.49,-73.64046906112179,45.5496462564262
102,103,Ahuntsic-Cartierville,Saint-Alphonse,,ave. Émile-Journault/ave. De Chateaubriand,,,,orthophotographies,293981.45,5045446.01,-73.63855255142529,45.54884342394871
103,104,Ahuntsic-Cartierville,Saint-André-Apôtre,,rue Prieur Ouest/ave. de l'Esplanade,,,,orthophotographies,291473.29,5045153.0,-73.67066630411951,45.5461633503817
104,105,Ahuntsic-Cartierville,Saint-André-Apôtre,,rue Prieur Ouest/ave. de l'Esplanade,,,,orthophotographies,291423.42,5045161.79,-73.6713051933843,45.546241489702204
105,106,Ahuntsic-Cartierville,Saint-Benoît,,rue Meilleur/rue Sauvé Ouest,,,,orthophotographies,291816.18,5044545.09,-73.66625903431141,45.54069965253839
106,107,Ahuntsic-Cartierville,Sainte-Odile,,rue De Salaberry/rue Marsan,,,,orthophotographies,288817.12,5043857.08,-73.70463959791091,45.53444637172811
107,108,Ahuntsic-Cartierville,Sainte-Odile,,rue De Salaberry/rue Marsan,,,,orthophotographies,288775.21,5043938.22,-73.70517885155441,45.5351755330588
108,109,Ahuntsic-Cartierville,Sainte-Odile,,rue De Salaberry/rue Marsan,,,,orthophotographies,288427.52,5044006.19,-73.709632861559,45.535779066094506
109,110,Ahuntsic-Cartierville,Saint-Paul-de-la-Croix,,rue Sauriol Est/ave. Hamel,,,,orthophotographies,292831.25,5046832.43,-73.6533169667666,45.561300052792205
110,111,Ahuntsic-Cartierville,Saint-Paul-de-la-Croix,,ave. Hamel/rue Sauvé Est,,,,orthophotographies,292945.4,5046756.6,-73.65185289827691,45.560619664288595
111,112,Ahuntsic-Cartierville,Saint-Simon-Apôtre,,rue Meunier/rue Legendre Est,,,,orthophotographies,293149.89,5044456.84,-73.6491787141556,45.5399291284247
112,113,Ahuntsic-Cartierville,de Salaberry,,rue Pasteur/rue de Louisbourg,,,,orthophotographies,289654.38,5044304.26,-73.6939334879104,45.5384889439353
113,114,Ahuntsic-Cartierville,du Sault-au-Récollet,,ave. Charton/rue Fleury Est,,,,orthophotographies,292879.52,5047784.86,-73.6527218623452,45.56987113117229
114,115,Ahuntsic-Cartierville,du Sault-au-Récollet,,ave. Charton/rue Fleury Est,,,,orthophotographies,292835.47,5047872.51,-73.6532883620273,45.5706590755614
115,116,Ahuntsic-Cartierville,Tolhurst,,rue Tolhurst/rue Fleury Ouest,,,,orthophotographies,291886.3,5044916.85,-73.66537095196509,45.5440461751636
116,117,Ahuntsic-Cartierville,Victor-Barbeau,,rue Lucien-Plante/rue Ernest-Savignac,,,,orthophotographies,294583.6,5046316.56,-73.63085905001358,45.55668601146339
117,118,Lachine,,piste de course,rue Esther-Blondin/rue Duff Court,,,école secondaire Dalbé-Viau,orthophotographies,290727.24,5033930.29,-73.6798985861241,45.445162272069105
118,119,Lachine,Carignan,,42² ave/rue Provost,,,,orthophotographies,288995.91,5033706.95,-73.7020236724136,45.4431155533198
119,120,Lachine,Dixie,,rue Victoria/54²ave,,,,orthophotographies,287728.33,5033782.23,-73.71822964456821,45.4437631502532
120,121,Lachine,de la Renaissance,,ter. Louis-Basile_pigeon/ter.J.-S.-Aimé-Ashby,,,,orthophotographies,289956.51,5033985.23,-73.68975278790879,45.445640706095
121,122,Lachine,Lasalle,,rue Victoria/10e ave,,,,orthophotographies,291277.6,5033081.49,-73.6728397903953,45.437535220174
122,123,Lachine,Lasalle,,16e ave/rue Remembrance,,,,orthophotographies,290983.65,5033112.99,-73.67659784905071,45.437812925695496
123,124,Lachine,Lasalle,stade,rue Saint-Ambroise/10e ave,,,,orthophotographies,291310.61,5033287.33,-73.672423508368,45.439388107342396
124,125,Lachine,Lasalle,face au stade,10e ave/rue Saint-Ambroise,,,,orthophotographies,291285.22,5033279.31,-73.6727478256452,45.439315449102104
125,126,Lachine,Lasalle,,rue Saint-Antoine/13e ave,,,,orthophotographies,290973.32,5033326.31,-73.6767358769674,45.4397322791747
126,127,Lachine,Stoney Point,,boul. Saint-Joseph/46e ave,,,,orthophotographies,288624.13,5032961.24,-73.7067515964051,45.43639679880339
127,128,Lachine,Saint-Louis,,boul. Saint-Joseph/32e ave,,,,orthophotographies,289726.63,5032607.49,-73.69264926400459,45.43323822081679
128,129,Lachine,Village Saint-Louis,,rue Dalbé-Viau,,,,orthophotographies,289434.38,5033821.1,-73.6964223087907,45.4441525043676
129,130,Lachine,Monk,,boul. Saint-Joseph/7e ave,,,,orthophotographies,291448.26,5032370.28,-73.6706391802007,45.431138677538
130,131,Lachine,Brewster,,rue Broadway/44e ave,,,,orthophotographies,288785.58,5032991.65,-73.7046890287225,45.4366741589851
131,132,Lachine,Grovehill,,rue Saint-Antoine/33e ave,,,,orthophotographies,289611.5,5033420.94,-73.6941458049357,45.4405555457854
132,133,Lachine,Rosewood,,rue Rosewood/ave de Mount Vernon,,,,orthophotographies,292866.13,5034445.43,-73.6525687702489,45.449837542088204
133,134,Lachine,Wilfrid-Vincent,,rues des Érables/ave Richardson,,,,orthophotographies,292849.24,5033780.16,-73.65276854007308,45.44385082993771
134,135,Lachine,Sainte-Anne,,rue Provost/24e ave,,,,orthophotographies,290340.85,5033539.99,-73.6848264937758,45.4416422802227
135,137,Villeray–Saint-Michel–Parc-Extension,Frédéric-Back,,rue des Regrattiers/rue Paul-Boutet,,,Grands Parcs,,295750.32,5046671.85,-73.6159214617419,45.5598991674733
136,138,Verdun,Arthur-Therrien,,boul. Gaétan-Laberge/rue Rhéaume,,,,orthophotographies,299963.51,5036342.72,-73.5618509460977,45.466995452951295
137,139,Verdun,Arthur-Therrien,,boul. Gaétan-Laberge/rue Hickson,,,,orthophotographies,299954.98,5036007.6,-73.5619567276014,45.4639798217384
138,140,Verdun,Lacoursière,,chemin du Golf/rue des Camélias,,,,orthophotographies,300864.9,5036251.56,-73.5503228895368,45.4661808111553
139,141,Verdun,Desmarchais,,boul. Lasalle/5e ave,,,,orthophotographies,299821.62,5035074.19,-73.5636526445142,45.4555796005352
140,142,Verdun,Centre communautaire Marcel Giroux,cour arrière,rue Willibrord/rue Bannantyne,,,,orthophotographies,298798.49,5035490.82,-73.5767392694651,45.459320604524606
141,143,Verdun,Adrien-D.Archambault,soccer,boulevard de la Forêt,,,,orthophotographies,300300.8,5035022.26,-73.5575254659587,45.455115558143206
142,144,Verdun,Adrien-D.Archambault,soccer,boulevard de la Forêt,,,,orthophotographies,300289.34,5035152.93,-73.5576731886907,45.4562913183312
143,145,Verdun,Duquette,,rue Newmarch/rue Dupuis,,,,orthophotographies,298957.81,5036209.29,-73.5747106391521,45.4657870976596
144,146,Verdun,Elgard,tennis,rue Elgar (tourne-bride),,,,orthophotographies,301084.09,5035309.31,-73.5475127202215,45.457703182375404
145,147,Verdun,Archie-Wilcox,jardins communautaires,boul. Lasalle/rue Melrose,,,,orthophotographies,299714.67,5034772.92,-73.56501697130379,45.452867851742496
146,148,Verdun,Natatorium,Piscine,boul. Lasalle/rue Stephens,,,accès restreint,orthophotographies,298849.41,5033734.67,-73.57606692757071,45.443518317298604
147,149,Verdun,Natatorium,Piscine,boul. Lasalle/rue Stephens,,,accès restreint,orthophotographies,298863.68,5033752.93,-73.57588473332501,45.443682751538105
148,150,Verdun,Natatorium,Piscine,boul. Lasalle/rue Stephens,,,accès restreint,orthophotographies,298882.28,5033686.51,-73.575646168602,45.44308522776179
149,151,Verdun,Norman-Dawe,,rue Woodland/rue Bannantyne,,,,orthophotographies,298654.19,5034732.6,-73.57857490677691,45.452496510146396
150,152,Verdun,Adrien-D.Archambault,,Chemin de la Pointe-Sud/rue des Parulines,,,,orthophotographies,300831.31,5034326.94,-73.5507369114423,45.4488619304488
151,153,Verdun,de l'Honorable-George-O'Reilly,,boul. Lasalle/rue Riverview,,,,orthophotographies,299154.55,5034048.54,-73.57216989991029,45.446345212171
152,154,Verdun,de l'Honorable-George-O'Reilly,,boul. Lasalle/rue Godin,,,,orthophotographies,299226.23,5034083.27,-73.57125395642299,45.4466583057978
153,155,Verdun,De La Fontaine,tennis,place de la Fontaine (tourne-bride),,,,orthophotographies,301333.59,5035991.01,-73.5443273472831,45.46383873843921
154,156,Verdun,De La Fontaine,,place de la Fontaine (tourne-bride),,,,orthophotographies,301274.9,5035926.68,-73.5450773947526,45.4632595718719
155,157,Verdun,,,Chemin de la Pointe-Nord/rue de la Rotonde,,,,orthophotographies,301784.16,5037007.47,-73.5385718408805,45.4729874270676
156,158,Verdun,de la Reine-Élizabeth,,rue Crawford/rue Penniston,,,,orthophotographies,297595.65,5033197.84,-73.5920859768643,45.438675846425106
157,159,Verdun,Arthur-Therrien,baseball,boul. Gaétan-Laberge,,,,orthophotographies,300017.6,5036247.97,-73.56115830021491,45.466143219155505
158,160,Verdun,Arthur-Therrien,baseball,boul. Gaétan-Laberge,,,,orthophotographies,299998.45,5036271.07,-73.561403419828,45.4663509527397
159,161,Verdun,Labelle,,rue Henri-Duhamel/rue de Verdun,,,,orthophotographies,299299.37,5036956.41,-73.5703510944878,45.472512813173196
160,162,Verdun,Willibrord,,rue Bannantyne/rue Willibrord,,,,orthophotographies,298878.0,5035496.19,-73.5757226676873,45.4593696049074
161,163,Verdun,Woodland,,rue Woodland/rue Wellington,,,,orthophotographies,299541.09,5034672.63,-73.5672351528308,45.4519641070232
162,164,Verdun,De La Fontaine,,place de la Fontaine (tourne-bride),,,,orthophotographies,301392.54,5036011.25,-73.5435736539818,45.4640211579132
163,165,Verdun,De La Fontaine,,place de la Fontaine (tourne-bride),,,,orthophotographies,301374.5,5036071.43,-73.54380476382559,45.4645625987446
164,166,Verdun,De La Fontaine,,place de la Fontaine/rue Berlioz,,,,orthophotographies,301467.79,5035914.1,-73.5426107195395,45.463147317609604
165,167,Le Sud-Ouest,Brewster,,ave Brewster/rue Saint-Jacques,,,,orthophotographies,298364.38,5038083.51,-73.58232403861619,45.4826469881113
166,168,Le Sud-Ouest,David-Lefebvre,,rue Vinet/rue Quesnel,,,,orthophotographies,298740.67,5038485.76,-73.5775155295401,45.486269982801296
167,169,Le Sud-Ouest,de l'Encan,,boul. Georges-Vanier/rue Notre-Dame Ouest,,,,orthophotographies,299122.09,5038330.51,-73.5726343253176,45.4848761802612
168,170,Le Sud-Ouest,des Cordonniers,,rue Bourget/rue Notre-Dame Ouest,,,,orthophotographies,298510.77,5037690.03,-73.58044639002141,45.4791076096942
169,171,Le Sud-Ouest,Gadbois,,rue des Utilités publiques/chemin de la Côte-Saint-Paul,,,,orthophotographies,297337.54,5036387.78,-73.5954335341273,45.4673778042842
170,172,Le Sud-Ouest,Jacques-Viger,,rue Saint-Philippe/rue Sainte-Philomène,,,,orthophotographies,298241.88,5037275.56,-73.58388026102979,45.4753755433897
171,173,Le Sud-Ouest,Jessie-Maxwell-Smith,,rue Saint-Antoine Ouest/place Richmond,,,,orthophotographies,299085.95,5039089.86,-73.573105482213,45.4917088555216
172,174,Le Sud-Ouest,Polyvalente Saint-Henri,,rue du Couvent/rue Saint-Antoine Ouest,,,,orthophotographies,298015.87,5037675.18,-73.58677651057779,45.478969349022506
173,175,Le Sud-Ouest,Sainte-Cunégonde,,rue Notre-Dame Ouest/rue Charlevoix,,,,orthophotographies,298826.61,5038050.03,-73.5764108203221,45.482349828124896
174,176,Le Sud-Ouest,Vinet,,rue Charlevoix/rue Workman,,,,orthophotographies,298840.41,5038126.97,-73.57623522644559,45.4830422871593
175,177,Le Sud-Ouest,Square Sainte-Élizabeth,,rue du square Sainte-Élizabeth/rue De Courcelle,,,,orthophotographies,297537.73,5037223.59,-73.59288576459309,45.4749009247713
176,178,Le Sud-Ouest,Place Roland-Proulx,,rue du Square-Sir-Georges-Étienne-Cartier/rue Saint-Ambroise,,,,orthophotographies,298200.12,5036946.93,-73.5844099682367,45.472417983849496
177,179,Le Sud-Ouest,Herb-Trawick,,rue Notre-DAme Ouest/rue Saint-Martin,,,,orthophotographies,299388.86,5038766.74,-73.5692264965382,45.48880369279821
178,180,Le Sud-Ouest,Carré d'Hibernia,,rue Grand Trunk/rue Laprairie,,,,orthophotographies,299776.76,5037679.41,-73.5642528439406,45.47902230252
179,181,Le Sud-Ouest,D'Argenson,baseball,rue du Centre/ave Atwater,,,,orthophotographies,299163.94,5037395.82,-73.5720882355495,45.47646575023129
180,182,Le Sud-Ouest,Le Ber,,ave Ash/rue Le Ber,,,,orthophotographies,300514.32,5037536.68,-73.55481738800309,45.477742868663704
181,183,Le Sud-Ouest,Le Ber,,ave Ash/rue Le Ber,,,,orthophotographies,300637.65,5037581.14,-73.55324027286309,45.478143686596404
182,184,Le Sud-Ouest,Atwater / Saint-Charles,,rue Saint-Charles/rue Thomas-Keefer,,,,orthophotographies,299058.53,5037507.25,-73.5734377874211,45.4774675902691
183,185,Le Sud-Ouest,Saint-Gabriel,,rue Charlevoix/rue Grand Trunk,,,,orthophotographies,299541.86,5037533.45,-73.5672559124382,45.47770715725161
184,186,Le Sud-Ouest,Campbell-Ouest ou parc Oscar-Peterson,,rue Quesnel/rue Chatham,,,,orthophotographies,299001.59,5038785.97,-73.57418119232,45.488973622905
185,187,Le Sud-Ouest,Clifford,,boul. de la Vérendrye/rue Raudot,,,,orthophotographies,297838.03,5034438.05,-73.5890054278174,45.44983834707371
186,188,Le Sud-Ouest,des Métallos,,rue Jacques-Hertel/rue Mazzarin,,,,orthophotographies,296843.51,5035393.38,-73.60173532296021,45.45842426311629
187,189,Le Sud-Ouest,Garneau,,boul. Monk/rue du Parc-Garneau,,,,orthophotographies,297383.74,5035089.32,-73.594823118893,45.4556941253771
188,190,Le Sud-Ouest,Springland,,rue Springland/boul. De La Vérendrye,,,,orthophotographies,298285.06,5034917.61,-73.58329672330191,45.4541579786506
189,191,LaSalle,Albert-Perras,,rue Perras/rue Jean-Chevalier,,,,orthophotographies,296051.29,5032771.09,-73.61181836197021,45.4348181093229
190,192,LaSalle,Boivin,,rue de Cabano/rue de Percé,,,,orthophotographies,294369.41,5031013.62,-73.6332774068654,45.4189804032321
191,193,LaSalle,Chevalier-De Lasalle,tennis,80e avenue/rue de Matane,,,,orthophotographies,293995.44,5031003.72,-73.6380555972055,45.4188856422998
192,194,LaSalle,Chevalier-De Lasalle,soccer,,,,localisation approx.,localisation approx.,293759.41,5031011.19,-73.641071636068,45.41894917645929
193,195,LaSalle,Centre sportif Dollard St-Laurent,jeux d'eau,,,,localisation approx.,localisation approx.,294740.34,5031299.95,-73.6285436881101,45.4215623865836
194,196,LaSalle,Christophe-Colomb,jeux,rue David-Boyer/rue Réjane,,,,orthophotographies,294845.57,5032265.77,-73.6272185684087,45.430254852199894
195,197,LaSalle,Dalmany,jeux,rue Dalmany/avenue Stirling,,,,orthophotographies,292363.69,5032181.78,-73.6589350007125,45.42945933671349
196,198,LaSalle,Hayward,jeux,rue Hayward,,,localisation approx.,localisation approx.,293147.81,5031448.4,-73.6488966975097,45.422873504844205
197,199,LaSalle,Hébert,jeux,rue Beyries/66e avenue,,,localisation approx. / accès par la ruelle ?,localisation approx.,294883.01,5031086.94,-73.626716348459,45.41964764490721
198,200,LaSalle,J.-D.-Ducharme,,rue rancourt/rue Daoust,,,,orthophotographies,295055.28,5031972.51,-73.6245326578798,45.42761889793571
199,201,LaSalle,Leduc,,rue Béique/rue Paquette,,,localisation approx.,localisation approx.,294421.61,5032020.41,-73.63263163247721,45.42804081150929
200,202,LaSalle,Jeannotte,jeux,rue Clément/rue Trudeau,,,,orthophotographies,293853.21,5032476.16,-73.6399056652547,45.4321332210644
201,203,LaSalle,Lacharité,softball,ave Latour/boul LaSalle,,,,orthophotographies,295140.7,5030701.39,-73.6234161119837,45.4161818615722
202,204,LaSalle,Lasalle-Nord,jeux,rue Chouinard/rue Lapierre,,,,orthophotographies,295603.69,5033082.97,-73.6175450084565,45.437618823293505
203,205,LaSalle,Lawrence,jeux,66e ave/rue Beyries,,,,orthophotographies,294899.52,5030912.86,-73.6265018911661,45.4180814126424
204,206,LaSalle,Lefebvre,jeux,rue Cordner/rue Hardy,,,,orthophotographies,294262.68,5033103.59,-73.634685870491,45.4377854480139
205,207,LaSalle,Leroux,soccer,rue Centrale/ave Alepin,,,,orthophotographies,297340.53,5032701.78,-73.5953393982553,45.434209363595706
206,208,LaSalle,Leroux,jeux,rue Centrale/ave Alepin,,,,orthophotographies,297246.34,5032737.3,-73.59654378282141,45.434527980104
207,209,LaSalle,Louis-Marie-Gagnon,jeux,rue des Oblats/rue Airlie,,,,orthophotographies,292688.44,5031803.23,-73.65477542868759,45.426058647660895
208,210,LaSalle,G.-Melatti,jeux,rue Melatti,,,,orthophotographies,296284.6,5032523.35,-73.6088321180635,45.4325916952546
209,211,LaSalle,Mohawk,,rue Dalmany/ave Highlands,,,,orthophotographies,292537.14,5032192.91,-73.6567186097983,45.4295625529705
210,212,LaSalle,Ouellette,baseball,rue Giguère,,,,orthophotographies,295242.48,5032626.29,-73.6221530305268,45.4335045364018
211,213,LaSalle,Ouellette,Piscine,rue Robert/rue Charbonneau,,,accès restreint,orthophotographies,295323.19,5032569.29,-73.621120394966,45.4329927192033
212,214,LaSalle,Paul-Séguin,jeux,rue Raymond/30e ave,,,,orthophotographies,295938.88,5031631.39,-73.6132345770209,45.424561070664794
213,215,LaSalle,Raymond,soccer,boul. Bishop-Power/rue Centrale,,,,orthophotographies,296801.27,5031975.82,-73.602219870511,45.427670830128
214,216,LaSalle,Riverside,jeux,35e ave/ave Vachon,,,,orthophotographies,295964.66,5031092.18,-73.6128954691008,45.4197092936004
215,217,LaSalle,Riverside,mini-soccer,35e ave/ave Vachon,,,,orthophotographies,295882.97,5031186.57,-73.613940987062,45.4205576296981
216,218,Outremont,Beaubien,jeux,ave Stuart/ave Saint-Viateur,,,,orthophotographies,296382.72,5041768.37,-73.6077364834767,45.515783825867096
217,219,Outremont,Beaubien,étang,ave Stuart/ave Saint-Viateur,,,,orthophotographies,296282.46,5041763.3,-73.6090196650693,45.5157369865025
218,220,Outremont,parc canin,,ave McEachran/ave du Manoir,,,,orthophotographies,295365.47,5042234.2,-73.62076565416791,45.519962522513104
219,221,Outremont,F.-X.-Garneau,,place Elmwood/ave Outremont,,,,orthophotographies,296598.14,5041853.27,-73.6049806530182,45.516550356738904
220,222,Outremont,John-F. Kennedy,Piscine,ave Ducharme/ave Wiseman,,,accès restreint,orthophotographies,295715.0,5042412.3,-73.61629484523209,45.52156977702229
221,223,Outremont,Joyce,jeux,ave Lajoie/ave Antonine-maillet,,,,orthophotographies,295789.34,5041713.79,-73.6153303978899,45.5152852780852
222,224,Outremont,Joyce,chalet,ave Lajoie/ave Antonine-maillet,,,,orthophotographies,295849.54,5041675.17,-73.61455917475008,45.514938535470705
223,225,Outremont,Joyce,tennis,ave Lajoie/ave Antonine-maillet,,,,orthophotographies,295828.78,5041698.01,-73.6148253046165,45.5151437919886
224,226,Outremont,d'Oakwood,tennis,ave Roskilde/ave Springgrove,,,,orthophotographies,296934.68,5041487.19,-73.6006672038924,45.5132601008522
225,227,Outremont,Pratt,étang,ave Van Horne/ave Dunlop,,,,orthophotographies,295454.06,5041656.92,-73.6196206633243,45.514769126329405
226,228,Outremont,Raoul-Dandurand,,ave Van Horne/boul Dollard,,,Parc Stanislas (dans BD ville),orthophotographies,295728.64,5042090.95,-73.61611429535,45.5186783237126
227,229,Outremont,Saint-Viateur,jeux,ave Querbes/ave Bernard,,,,orthophotographies,296509.47,5042301.73,-73.60612317853129,45.520584726162504
228,230,Outremont,Saint-Viateur,tennis #3,ave Querbes/ave Bernard,,,accès restreint,orthophotographies,296492.98,5042332.05,-73.60633477283871,45.5208573609582
229,231,Outremont,Saint-Viateur,tennis #4,ave Querbes/ave Bernard,,,accès restreint,orthophotographies,296475.12,5042343.39,-73.6065635836433,45.5209591896189
230,232,Outremont,CCI,,ave McEachran/ave du Manoir,,,Centre Communautaire Intergénérationnel,orthophotographies,295418.66,5042238.63,-73.62008488778409,45.5200031031151
231,233,Plateau-Mont-Royal,des Açores (ou Hôtel-de-Ville),jeux,ave de l'Hôtel-de-Ville/rue Rachel Est,,,,,298592.36,5042162.19,-73.579459345197,45.5193507480139
232,234,Plateau-Mont-Royal,Albert-Saint-Martin,jeux,rue Berri/rue De Bienville,,,,,298296.79,5042867.68,-73.58325207370979,45.5256963277821
233,235,Plateau-Mont-Royal,Alphonse-Télésphore-Lépine,,ave De Gaspé/ave Fairmount Est,,,,,297556.33,5042893.51,-73.5927315825684,45.5259214543915
234,236,Plateau-Mont-Royal,des Amériques,,boul Saint-Laurent/rue Rachel Est,,,,,298407.4,5042041.99,-73.5818253093539,45.5182674694248
235,237,Plateau-Mont-Royal,Baldwin,,rue Fullum/rue Marie-Anne Est,,,localisation approx.,localisation approx.,299636.36,5044081.49,-73.5661161238705,45.5366298617974
236,238,Plateau-Mont-Royal,Baldwin,,rue Fullum/rue Marie-Anne Est,,,localisation approx.,localisation approx.,299513.4,5044132.92,-73.5676910787635,45.537091725912106
237,239,Plateau-Mont-Royal,De Bullion,,rue De Bullion/rue Prince-Arthur Est,,,,orthophotographies,299176.16,5041778.11,-73.5719821586527,45.5158995961116
238,240,Plateau-Mont-Royal,des Compagnons-de-Saint-Laurent,,ave du Mont-Royal Est/rue Cartier,,,,orthophotographies,299088.8,5043765.81,-73.5731234880642,45.5337849827221
239,241,Plateau-Mont-Royal,Devonshire,,rue Sewell/ave des Pins Ouest,,,,orthophotographies,298845.98,5041644.63,-73.5762066620594,45.5146957480695
240,242,Plateau-Mont-Royal,Drolet / Rachel,,rue Drolet/rue Rachel Est,,,,orthophotographies,298550.93,5042425.63,-73.579993018156,45.5217209147616
241,243,Plateau-Mont-Royal,Gilles-Lefebvre,jeux d'eau,ave Henri-Julien/ave du Mont-Royal Est,,,,orthophotographies,298215.56,5042605.74,-73.5842884338338,45.5233385278252
242,244,Plateau-Mont-Royal,Jean-Jacques-Olier,,rue Drolet/ave Duluth Est,,,,orthophotographies,298901.35,5042199.65,-73.575504650277,45.5196905106462
243,245,Plateau-Mont-Royal,de la Bolduc,,rue Rachel Est/rue Rivard,,,,orthophotographies,298753.36,5042497.68,-73.57740264614759,45.522371034080706
244,246,Plateau-Mont-Royal,Lahaie,,ave Laurier Est/rue saint-Dominique,,,,orthophotographies,297618.64,5042600.23,-73.5919296087411,45.5232830529216
245,247,Plateau-Mont-Royal,Laval,,ave Laval/rue du Square-Saint-Louis,,,,orthophotographies,299176.24,5041892.17,-73.5719824432553,45.5169259544878
246,248,Plateau-Mont-Royal,Lhasa-de-Sela (Clark),,rue Clark/rue Saint-Urbain,,,,orthophotographies,296614.15,5043055.9,-73.60479582039692,45.5273722729354
247,249,Plateau-Mont-Royal,Louis-Reitman,,rue saint-Dominique/rue Roy Est,,,,orthophotographies,298867.17,5041789.34,-73.5759371986965,45.5159980875607
248,250,Plateau-Mont-Royal,du Portugal,,boul Saint-Laurent/rue Marie-Anne Est,,,,orthophotographies,298268.08,5042151.33,-73.5836100612599,45.519250062716
249,260,Plateau-Mont-Royal,Saint-Pierre-Claver,,rue Fullum/rue Gilford,,,,orthophotographies,299043.35,5044416.59,-73.5737130584537,45.5396405676612
250,261,Plateau-Mont-Royal,Thérèse-Daviau (Roy/Rivard),,rue Roy Est/rue Rivard,,,,orthophotographies,299166.31,5042247.58,-73.572113629292,45.52012399518021
251,262,Plateau-Mont-Royal,University Settlement,,rue Clark/rue Milton,,,,orthophotographies,299194.68,5041412.88,-73.57174093679009,45.51261325761539
252,263,Plateau-Mont-Royal,Palomino Brin D'Amour (Villeneuve),,ave Henri-Julien/rue Gilford,,,,orthophotographies,298098.68,5042684.6,-73.5857857095901,45.52404702687039
253,264,Rivière-des-Prairies–Pointe-aux-Trembles,Centre récréatif RDP,tennis,ave Fernand-Gauthier/boul Maurice-Duplessis,,,accès restreint,orthophotographies,297413.61,5054079.38,-73.59472772836621,45.6265737945856
254,265,Rivière-des-Prairies–Pointe-aux-Trembles,École Bosco-Ville,privé,10950 boul Perras,,,localisation approx. accès restreint/terrain privé,localisation approx.,301385.43,5058447.59,-73.5438212615417,45.665910706858995
255,266,Rivière-des-Prairies–Pointe-aux-Trembles,Jean-Jacques-Rousseau,Jardins communautaires,rue La Galissionnière/rue des Philosophes,,,Jardin commun. Les Arpents Verts/accès restreint,orthophotographies,300911.49,5057959.4,-73.5498997179818,45.6615153940499
256,267,Rivière-des-Prairies–Pointe-aux-Trembles,Jardin commun. Les Deux Sapins,Jardins communautaires,89e ave/boul Perras,,,accès restreint,orthophotographies,301723.08,5059203.33,-73.5394927761062,45.6727125600457
257,268,Rivière-des-Prairies–Pointe-aux-Trembles,Albéric-Bourgeois,,ave André-Ampère/25e ave,,,,orthophotographies,297802.1,5055260.25,-73.5897624542843,45.637203539682
258,269,Rivière-des-Prairies–Pointe-aux-Trembles,André-Corbeil-Dit_Tranchemontagne,,boul Gouin Est/26e ave,,,,orthophotographies,297225.01,5056013.88,-73.5971765318649,45.6439787969703
259,270,Rivière-des-Prairies–Pointe-aux-Trembles,Armand-Bombardier,,ave Charles-Renard/ave Octave-Pelletier,,,,orthophotographies,297309.95,5055651.44,-73.5960812971405,45.6407184120555
260,271,Rivière-des-Prairies–Pointe-aux-Trembles,Cécile-Bérubé,,ave Élie-Beauregard/rue Joseph De Montenon,,,,orthophotographies,297143.71,5054944.64,-73.5982026870833,45.63435666792579
261,272,Rivière-des-Prairies–Pointe-aux-Trembles,Claudine-Vallerand,,27e ave/rue Pierre-Magnet,,,,orthophotographies,298253.28,5054644.92,-73.5839668805398,45.6316710700366
262,273,Rivière-des-Prairies–Pointe-aux-Trembles,Conrad-Poirier,,boul Perras/ave Salomon-Marion,,,localisation approx.,localisation approx.,297231.15,5055224.3,-73.5970854930095,45.636874065219004
263,274,Rivière-des-Prairies–Pointe-aux-Trembles,Dollard-Morin,,rue La Valinière/ave René-Descartes,,,,orthophotographies,297565.11,5054219.44,-73.5927868785874,45.627835680079606
264,275,Rivière-des-Prairies–Pointe-aux-Trembles,Dollard-Morin,,boul Maurice-Duplessis/15e ave,,,,orthophotographies,297506.39,5054233.17,-73.5935401623173,45.6279586115232
265,276,Rivière-des-Prairies–Pointe-aux-Trembles,Dollard-Morin,,rue La Valinière/ave René-Descartes,,,localisation approx.,localisation approx.,297554.91,5054207.24,-73.59291751121191,45.6277257954617
266,277,Rivière-des-Prairies–Pointe-aux-Trembles,Dollard-Morin,,rue La Valinière/ave René-Descartes,,,localisation approx.,localisation approx.,297563.49,5054164.45,-73.5928068383731,45.62734085100921
267,278,Rivière-des-Prairies–Pointe-aux-Trembles,Alexis-Carrel (Don Bosco),,boul Perras/ave Alfred-Nobel,,,,orthophotographies,297888.96,5056066.52,-73.58865973950371,45.6444593895548
268,279,Rivière-des-Prairies–Pointe-aux-Trembles,du Moulin-du-Rapide,,rue de Clichy/58e ave,,,,orthophotographies,299185.11,5057811.58,-73.5720519518042,45.6601734597883
269,280,Rivière-des-Prairies–Pointe-aux-Trembles,Edmondo-Chiodini,,4e rue/60e ave,,,,orthophotographies,299711.48,5057336.56,-73.5652924509159,45.65590320495279
270,281,Rivière-des-Prairies–Pointe-aux-Trembles,Ernest-Rouleau,,boul Gouin Est/ave Ozias-Leduc,,,,orthophotographies,295743.68,5054620.9,-73.6161539886417,45.631426741294
271,282,Rivière-des-Prairies–Pointe-aux-Trembles,Ferdinand-Biondi,,ave Auguste-Picard/ave Éli-Beauregard,,,,orthophotographies,297376.08,5054454.98,-73.595214758102,45.6299531257986
272,283,Rivière-des-Prairies–Pointe-aux-Trembles,Gérard-Picard,,boul Rodolphe-Forget/ave Louis-Dessaules,,,,orthophotographies,298898.67,5056333.32,-73.57570970728959,45.6468694265539
273,284,Rivière-des-Prairies–Pointe-aux-Trembles,Gerry-Roufs,,boul Gouin Est/ave Pierre-Baillargeon,,,,orthophotographies,298030.1,5056778.13,-73.58685899317909,45.6508639831311
274,285,Rivière-des-Prairies–Pointe-aux-Trembles,Marie-Cardinal,,rue Jacques-Rousseau (tourne-bride),,,,orthophotographies,296564.81,5055062.02,-73.60562986577258,45.635406253436095
275,286,Rivière-des-Prairies–Pointe-aux-Trembles,Pasquale-Gatusso,,Place Gilles-Trottier,,,,orthophotographies,298879.52,5055142.91,-73.57594091489209,45.63615771233211
276,287,Rivière-des-Prairies–Pointe-aux-Trembles,Renée-Vautelet,,ave Pierre-Baillargeon/rue Albert-Chamberland,,,,orthophotographies,298186.32,5056707.07,-73.5848537001502,45.650226078246796
277,288,Rivière-des-Prairies–Pointe-aux-Trembles,Pierre-Blanchet,,ave Philippe-Panneton/ave André-Ampère,,,,orthophotographies,296721.12,5054187.95,-73.60361044306829,45.6275430221672
278,289,Rivière-des-Prairies–Pointe-aux-Trembles,Pierre-Dagenais-dis-Lépine,,boul Gouin Est/48e ave,,,,orthophotographies,298473.28,5057234.47,-73.5811788549883,45.654974396009294
279,290,Rivière-des-Prairies–Pointe-aux-Trembles,Pierre-Perrault,,boul Gouin Est/ave Rita-Levi-Montalcini,,,,orthophotographies,297540.47,5056353.15,-73.5931346852597,45.647034984532006
280,291,Rivière-des-Prairies–Pointe-aux-Trembles,Saint-Valérien,,boul Perras/87e ave,,,,orthophotographies,301518.04,5058951.61,-73.5421227985137,45.670446602873
281,292,Rivière-des-Prairies–Pointe-aux-Trembles,Saint-Marthe,,rue Jacques-Rousseau/ave Jean-Jalbot,,,localisation approx.,localisation approx.,297029.93,5055435.06,-73.59966989635458,45.6387683040063
282,293,Rivière-des-Prairies–Pointe-aux-Trembles,Samuel-Morse,,ave André-Dumas/ave André-Ampère,,,,orthophotographies,298158.31,5055423.63,-73.58519556179891,45.6386771653639
283,294,Rivière-des-Prairies–Pointe-aux-Trembles,Marie-Coron (Urgel-Charbonneau),,rue René-Lévesque/36e ave,,,,orthophotographies,304810.48,5057751.05,-73.49986551874841,45.6596515204152
284,295,Rivière-des-Prairies–Pointe-aux-Trembles,Gérard-Vaillancourt,,rue Ontario Est/47e ave,,,,orthophotographies,304673.22,5058592.02,-73.50162708303459,45.6672187053992
285,296,Rivière-des-Prairies–Pointe-aux-Trembles,Rodrigue-Gilbert Sud,,rue Joseph-Dargent/rue Joseph-Janot,,,localisation approx.,localisation approx.,304888.1,5056874.37,-73.4988696436189,45.6517629828106
286,297,Rivière-des-Prairies–Pointe-aux-Trembles,Pierre-Lacroix (Jardins commun.),Jardins communautaires,rue Parent/18e ave,,,accès restreint,orthophotographies,305158.75,5056263.7,-73.4953975516274,45.6462679653216
287,298,Rivière-des-Prairies–Pointe-aux-Trembles,Richelieu (Jardins commun.),Jardins communautaires,rue Forsyth/40e ave,,,accès restreint,orthophotographies,304451.6,5058194.18,-73.50447104904451,45.663638796213895
288,299,Rivière-des-Prairies–Pointe-aux-Trembles,Maria-Goreti (Jardins commun.),Jardins communautaires,Ter. Sainte-Maria-Goreti/94e ave,,,accès restreint,orthophotographies,306171.31,5062008.15,-73.4823910915763,45.6979561971675
289,300,Rivière-des-Prairies–Pointe-aux-Trembles,Parc-école Notre-Dame,,rue Notre-Dame Est/57e ave,,,,orthophotographies,305287.02,5059240.66,-73.49374897978241,45.673055116301605
290,301,Rivière-des-Prairies–Pointe-aux-Trembles,Beausoleil,,rue Beausoleil/rue Beaudoin,,,,orthophotographies,305381.7,5060631.4,-73.49253207438571,45.68556913229429
291,302,Rivière-des-Prairies–Pointe-aux-Trembles,des Bouleaux,,rue des Bouleaux/rue Reeves,,,,orthophotographies,304732.16,5056402.67,-73.5008703471647,45.6475185349384
292,303,Rivière-des-Prairies–Pointe-aux-Trembles,de la Rivière,,rue Pierre-Mercure/rue Napoléon-Brisebois,,,,orthophotographies,305475.33,5062143.69,-73.49132793979979,45.6991768303512
293,304,Rivière-des-Prairies–Pointe-aux-Trembles,du Bout-de-L'île,,rue Bureau (tourne-bride),,,localisation approx.,localisation approx.,306495.87,5062481.84,-73.47822178190809,45.7022177972606
294,305,Rivière-des-Prairies–Pointe-aux-Trembles,Clémentine-De la Rousselière,,rue Notre-Dame Est/boul De La Rousselière,,,,orthophotographies,305267.71,5058703.18,-73.4939973453372,45.6682187958388
295,306,Rivière-des-Prairies–Pointe-aux-Trembles,du Colombier,,rue du Colombier,,,,orthophotographies,305255.6,5056568.26,-73.49415476590829,45.6490084007415
296,307,Rivière-des-Prairies–Pointe-aux-Trembles,Daniel-Johnson,,boul du Tricentenaire/rue Joseph-Dargent,,,,orthophotographies,304810.48,5056697.17,-73.4998655414445,45.650168507952
297,308,Rivière-des-Prairies–Pointe-aux-Trembles,des Épinettes,,rue des Épinettes/rue des Bois-Francs,,,,orthophotographies,304223.09,5056575.66,-73.5074016198203,45.6490748971834
298,309,Rivière-des-Prairies–Pointe-aux-Trembles,François-La Bernarde,,place François-La Bernarde/rue Antoine-Chaudillon,,,,orthophotographies,305571.23,5061326.17,-73.4900977653473,45.691820582565896
299,310,Rivière-des-Prairies–Pointe-aux-Trembles,François-Vaillancourt,,rue René-Lévesque/31e ave,,,localisation approx.,localisation approx.,304740.65,5057334.61,-73.50076153911559,45.6559043136076
300,311,Rivière-des-Prairies–Pointe-aux-Trembles,de Montmartre,,rue De Montigny/60e ave,,,,orthophotographies,304999.39,5059548.03,-73.4974406547523,45.675821022807
301,312,Rivière-des-Prairies–Pointe-aux-Trembles,Richelieu,,rue Forsyth/40e ave,,,,orthophotographies,304414.25,5058182.5,-73.5049503557438,45.663533677752
302,313,Rivière-des-Prairies–Pointe-aux-Trembles,Rosaire-Prieur (Prince-Albert),,rue Prince-Albert/8e ave,,,,orthophotographies,305397.83,5055439.65,-73.4923313762802,45.63885282609179
303,314,Rivière-des-Prairies–Pointe-aux-Trembles,Saint-Georges,,place Saint-Georges,,,,orthophotographies,305404.06,5057166.65,-73.4922493185835,45.6543927173063
304,315,Rivière-des-Prairies–Pointe-aux-Trembles,Saint-Jean-Baptiste,,boul Saint-Jean-Baptiste/rue René-Lévesque,,,,orthophotographies,304761.14,5055686.57,-73.5004984937151,45.641074921293004
305,316,Rivière-des-Prairies–Pointe-aux-Trembles,Saint-Joseph,,boul Gouin Est/68e ave,,,,orthophotographies,300044.95,5057888.52,-73.5610189860566,45.660872205324104
306,317,Rivière-des-Prairies–Pointe-aux-Trembles,Saint-Joseph,,boul Gouin Est/68e ave,,,,orthophotographies,299910.65,5058024.55,-73.5627437515313,45.6620952934889
307,318,Rivière-des-Prairies–Pointe-aux-Trembles,Saint-Joseph,,boul Gouin Est/68e ave,,,,orthophotographies,299907.84,5058053.38,-73.562780101447,45.6623546910069
308,319,Rivière-des-Prairies–Pointe-aux-Trembles,Maria-Goretti,,rue Notre-Dame Est/85e ave,,,,orthophotographies,305761.51,5061305.65,-73.4876546992836,45.69163570303579
309,320,Rivière-des-Prairies–Pointe-aux-Trembles,Yves-Thériault / Sherbrooke,,ave Yves-Thériault/rue Thérèse-Giroux,,,,orthophotographies,304515.32,5059963.0,-73.503654360129,45.679554956974705
310,321,Rivière-des-Prairies–Pointe-aux-Trembles,Polyvalente Pointe-aux-Trembles,,rue Sherbrooke Est/rue Damien-Gauthier,,,localisation approx.,localisation approx.,305184.31,5060501.17,-73.4950662909077,45.684397441752004
311,322,Rivière-des-Prairies–Pointe-aux-Trembles,Polyvalente Pointe-aux-Trembles,,rue Sherbrooke Est/rue Damien-Gauthier,,,localisation approx.,localisation approx.,305197.73,5060500.7,-73.4948940075222,45.6843932050549
312,323,Rivière-des-Prairies–Pointe-aux-Trembles,Polyvalente Pointe-aux-Trembles,,rue Sherbrooke Est/rue Damien-Gauthier,,,localisation approx.,localisation approx.,305185.73,5060490.11,-73.49504806995971,45.684297921497496
313,324,Rivière-des-Prairies–Pointe-aux-Trembles,Polyvalente Pointe-aux-Trembles,,rue Sherbrooke Est/rue Damien-Gauthier,,,localisation approx.,localisation approx.,305198.67,5060491.29,-73.4948819476775,45.6843085319858
314,325,Rivière-des-Prairies–Pointe-aux-Trembles,Victoria-Girard,,rue Forsyth/rue Jean-Leduc,,,localisation approx.,localisation approx.,304233.62,5057189.24,-73.5072672364081,45.654596018208196
315,326,Rivière-des-Prairies–Pointe-aux-Trembles,Place du Village,,rue Notre-Dame Est/boul Saint-Jean-Baptiste,,,localisation approx.,localisation approx.,305645.88,5055542.62,-73.48914935296371,45.6397791143472
316,327,Rivière-des-Prairies–Pointe-aux-Trembles,Rampe de mise à l'eau,,rue Notre-Dame Est/36e ave,,,,orthophotographies,305552.02,5057685.59,-73.4903500448747,45.6590620918888
317,328,Rivière-des-Prairies–Pointe-aux-Trembles,Francesco-Lacurto,,rue Maude-Abbott/rue Charlotte-Tassé,,,,orthophotographies,297291.98,5053906.55,-73.59628492364841,45.625017327593206
318,329,Rivière-des-Prairies–Pointe-aux-Trembles,Perh-Kalm,,ave Rolland-Germain/rue Marcel-Raymond,,,,orthophotographies,300776.16,5058196.67,-73.55163831660771,45.6636496191226
319,330,Rivière-des-Prairies–Pointe-aux-Trembles,René-Masson,,boul Rodolphe-Forget/boul Perras,,,,orthophotographies,298660.35,5056906.72,-73.57877440635458,45.6520269216699
320,331,Rivière-des-Prairies–Pointe-aux-Trembles,des Pins,,42e ave/rue Cherrier,,,,orthophotographies,303503.27,5058519.67,-73.5166419220824,45.6665664872244
321,332,Rivière-des-Prairies–Pointe-aux-Trembles,Marie-Claire-Daveluy,,ave Jean-Yves-Bigras/ave Louis-Dessaules,,,,orthophotographies,299446.45,5056654.1,-73.568685627373,45.649760308249704
322,333,Rosemont–La Petite-Patrie,Beaubien,,rue Beaubien Est/6e ave,,,localisation approx.,localisation approx.,297758.91,5045994.13,-73.5901828013251,45.5538240277343
323,334,Rosemont–La Petite-Patrie,Beaubien,,rue Beaubien Est/6e ave,,,localisation approx.,localisation approx.,297774.55,5045990.22,-73.58998242714941,45.55378900219439
324,335,Rosemont–La Petite-Patrie,Bélanger/Chateaubriand,,reu Bélanger/ave De Chateaubriand,,,,orthophotographies,296178.21,5044268.7,-73.6103980942254,45.53828023552379
325,336,Rosemont–La Petite-Patrie,Carmela-Galardo-Frascarelli,,rue Drolet/rue Bélanger,,,,orthophotographies,296030.3,5044053.19,-73.6122881509997,45.536339153212296
326,337,Rosemont–La Petite-Patrie,des Carrières,,rue des Carrières/rue Boyer,,,,orthophotographies,297510.28,5043746.14,-73.5933337903976,45.5335932596698
327,338,Rosemont–La Petite-Patrie,de la Cité-Jardin,,boul Rosemont/ave des Épinettes,,,localisation approx.,localisation approx.,299971.7,5047937.37,-73.5618604308963,45.571328802495
328,339,Rosemont–La Petite-Patrie,Dante,,rue Dante/ave De Gaspé,,,,orthophotographies,296064.58,5043832.45,-73.6118452895708,45.534353285395
329,340,Rosemont–La Petite-Patrie,De Gaspé,,ave De Gaspé/rue Saint-Zotique Est,,,,orthophotographies,296268.16,5043694.32,-73.6092363202975,45.5331128635227
330,341,Rosemont–La Petite-Patrie,Étienne-Desmarteau,,rue Beaubien Est/20e ave,,,,orthophotographies,298533.93,5046741.81,-73.5802658762942,45.56055930856421
331,342,Rosemont–La Petite-Patrie,Étienne-Desmarteau,,rue Beaubien Est/20e ave,,,,orthophotographies,298574.73,5046727.85,-73.579743067258,45.5604340578906
332,343,Rosemont–La Petite-Patrie,Étienne-Desmarteau,,rue Beaubien Est/20e ave,,,localisation approx.,localisation approx.,298536.78,5046645.61,-73.580228136977,45.5596936947573
333,344,Rosemont–La Petite-Patrie,Étienne-Desmarteau,,rue Beaubien Est/20e ave,,,localisation approx.,localisation approx.,298585.63,5046628.0,-73.5796021742768,45.559535671873796
334,345,Rosemont–La Petite-Patrie,Étienne-Desmarteau,,rue Beaubien Est/20e ave,,,localisation approx.,localisation approx.,298518.73,5046611.28,-73.580458905653,45.559384619407304
335,346,Rosemont–La Petite-Patrie,Étienne-Desmarteau,,rue Beaubien Est/20e ave,,,localisation approx.,localisation approx.,298569.78,5046587.96,-73.57980469256941,45.5591752369886
336,347,Rosemont–La Petite-Patrie,Guglielmo-Marconi (Jean-Talon/Saint-Laurent),,boul Saint-Laurent/rue Jean-Talon Est,,,,orthophotographies,295607.38,5043882.07,-73.6177000391677,45.534793902666394
337,348,Rosemont–La Petite-Patrie,Guido-Nincheri,,rue Sherbrooke Est/boul Pie-IX,,,localisation approx.,localisation approx.,300503.29,5046033.34,-73.5550329452937,45.554199194226705
338,349,Rosemont–La Petite-Patrie,Place Hector-Prud'homme,,rue Saint-Hubert/rue de Bellechasse,,,,orthophotographies,297015.6,5043883.2,-73.5996695855457,45.534821225472
339,350,Rosemont–La Petite-Patrie,Henri-Valade,,place Henri-Valade/boul Saint-Joseph Est,,,,orthophotographies,299482.87,5045404.34,-73.56809580326909,45.5485321897072
340,351,Rosemont–La Petite-Patrie,Idola-Saint-Jean,,boul Rosemont/18e ave,,,,orthophotographies,298778.19,5046429.53,-73.5771331604392,45.55775146463429
341,352,Rosemont–La Petite-Patrie,J.-Arthur-Champagne,,ave du Mont-Royal Est/rue Henri-Deslongchamps,,,,orthophotographies,300015.36,5045769.94,-73.56127985101651,45.55182584824511
342,353,Rosemont–La Petite-Patrie,Jean-Duceppe,,rue William-Tremblay/rue André-Laurendeau,,,,orthophotographies,299753.65,5044798.52,-73.5646217144162,45.5430828197083
343,354,Rosemont–La Petite-Patrie,Jean-Duceppe,,rue William-Tremblay/rue André-Laurendeau,,,localisation approx.,localisation approx.,299606.4,5044884.68,-73.5665082570232,45.5438570361742
344,355,Rosemont–La Petite-Patrie,Jean-Et-Èva-Tremblay,,place Guillet/18e ave,,,localisation approx.,localisation approx.,300206.19,5045742.33,-73.5588355149888,45.551578688786705
345,356,Rosemont–La Petite-Patrie,Joseph-N.-Drapeau,,place Joseph-N.-Drapeau/rue William-Tremblay,,,,orthophotographies,300069.84,5045404.45,-73.5605785591755,45.5485374132424
346,357,Rosemont–La Petite-Patrie,Joseph-Paré,,rue Beaubien Est/43e ave,,,,orthophotographies,299347.87,5048317.37,-73.56985720680491,45.574743553736
347,358,Rosemont–La Petite-Patrie,Lafond,,boul Saint-Joseph Est/13e ave,,,,orthophotographies,299490.95,5045732.07,-73.56799587958429,45.551481280461
348,359,Rosemont–La Petite-Patrie,Lafond,,boul Saint-Joseph Est/13e ave,,,localisation approx.,localisation approx.,299421.71,5045820.54,-73.5688836456202,45.552276832888296
349,360,Rosemont–La Petite-Patrie,Lafond,,boul Saint-Joseph Est/13e ave,,,localisation approx.,localisation approx.,299443.88,5045816.85,-73.5685996582237,45.552243799858395
350,361,Rosemont–La Petite-Patrie,Lafond,,boul Saint-Joseph Est/13e ave,,,localisation approx.,localisation approx.,299453.0,5045812.66,-73.56848280615691,45.5522061668725
351,362,Rosemont–La Petite-Patrie,Maisonneuve (gorf municipal),,rue Sherbrooke Est/boul de L'Assomption,,,,orthophotographies,300370.15,5048029.43,-73.5567563057624,45.572159837890396
352,363,Rosemont–La Petite-Patrie,Maisonneuve (gorf municipal),,rue Sherbrooke Est/boul de L'Assomption,,,localisation approx.,localisation approx.,300364.05,5047696.08,-73.55683143515809,45.569160209448206
353,364,Rosemont–La Petite-Patrie,Léon-Provancher,,boul Pix-IX/rue Dandurand,,,localisation approx.,localisation approx.,299364.14,5046720.46,-73.5696309860435,45.5603741713975
354,365,Rosemont–La Petite-Patrie,des Locomotives,,rue Omer-Lavallée/ave du Midway,,,,orthophotographies,299966.06,5045090.2,-73.5619045517758,45.545708967554795
355,366,Rosemont–La Petite-Patrie,de la Louisiane,,rue de Bellechasse/35e ave,,,localisation approx.,localisation approx.,299266.31,5047660.12,-73.5708947790953,45.568828767653294
356,367,Rosemont–La Petite-Patrie,de la Louisiane,,rue de Bellechasse/35e ave,,,localisation approx.,localisation approx.,299057.59,5047603.19,-73.57356812104321,45.5683148025702
357,368,Rosemont–La Petite-Patrie,de la Louisiane,,rue de Bellechasse/35e ave,,,localisation approx.,localisation approx.,299140.6,5047622.97,-73.5725048793367,45.5684934692544
358,369,Rosemont–La Petite-Patrie,de la Louisiane,,rue de Bellechasse/35e ave,,,localisation approx.,localisation approx.,299151.93,5047621.04,-73.5723597039084,45.56847619453261
359,370,Rosemont–La Petite-Patrie,Luc-Durand,,ave De Chateaubriand/rue des Ateliers,,,,orthophotographies,297273.76,5043567.31,-73.5963593173862,45.531981566710606
360,371,Rosemont–La Petite-Patrie,Maisonneuve,,rue Sherbrooke Est/rue Viau,,,,orthophotographies,299732.23,5047587.14,-73.56492490010069,45.5681756186515
361,372,Rosemont–La Petite-Patrie,Maisonneuve,,rue Sherbrooke Est/rue Viau,,,,orthophotographies,300288.25,5046937.45,-73.5577955502424,45.562333321797105
362,373,Rosemont–La Petite-Patrie,Maisonneuve,,rue Sherbrooke Est/rue Viau,,,,orthophotographies,300465.69,5046858.59,-73.55552184469491,45.5616248406435
363,374,Rosemont–La Petite-Patrie,Molson,,rue d'Iberville/ave Elsdale,,,localisation approx.,localisation approx.,297609.7,5045538.08,-73.5920871896442,45.5497188093937
364,375,Rosemont–La Petite-Patrie,Montcalm,,rue Cartier/rue Saint-Zotique Est,,,,orthophotographies,296861.59,5045148.53,-73.6016620067772,45.5462053787496
365,376,Rosemont–La Petite-Patrie,Mozart,,ave Mozart Ouest/rue Waverly,,,,orthophotographies,295663.52,5043502.97,-73.616974165899,45.531383361250704
366,377,Rosemont–La Petite-Patrie,du Pélican,,rue Laurier Est/1ere ave,,,,orthophotographies,298982.19,5044918.37,-73.57450216593341,45.544155257293504
367,378,Rosemont–La Petite-Patrie,du Pélican,,rue Molson/boul Saint-Joseph,,,,orthophotographies,299127.94,5044785.18,-73.57263416737041,45.5429579678978
368,379,Rosemont–La Petite-Patrie,Père-Marquette (sud),Parc à chien,rue Garnier/boul Rosemont,,,parc à chien / accès restreint,orthophotographies,297726.01,5044270.43,-73.59057927283041,45.538313236819896
369,380,Rosemont–La Petite-Patrie,Père-Marquette (centre),,boul Rosemont/rue Chambord,,,,orthophotographies,297585.1,5044499.45,-73.59238693480991,45.5403725965631
370,381,Rosemont–La Petite-Patrie,Père-Marquette (centre),,boul Rosemont/rue Chambord,,,,orthophotographies,297392.54,5044348.53,-73.59485038260159,45.5390125433111
371,382,Rosemont–La Petite-Patrie,Père-Marquette (centre),,boul Rosemont/rue Chambord,,,localisation approx.,localisation approx.,297469.85,5044336.97,-73.5938602786908,45.5389093399205
372,383,Rosemont–La Petite-Patrie,Père-Marquette (centre),,boul Rosemont/rue Chambord,,,localisation approx.,localisation approx.,297480.98,5044336.97,-73.5937177627133,45.5389094569297
373,384,Rosemont–La Petite-Patrie,Père-Marquette (nord),,rue De Drucourt/rue De Lanaudière,,,,orthophotographies,297268.14,5044433.6,-73.5964445950522,45.5397767000744
374,385,Rosemont–La Petite-Patrie,de la Petite-Italie,,rue Clark/rue Saint-Zotique Ouest,,,localisation approx.,localisation approx.,296054.76,5043503.75,-73.6119651519854,45.5313953993685
375,386,Rosemont–La Petite-Patrie,Richard-Angus,,rue Ernest-Gendreau/ave du Mont-Royal Est,,,,orthophotographies,299838.55,5045537.94,-73.56354201251409,45.5497369940234
376,387,Rosemont–La Petite-Patrie,Rosemont,,rue Dandurand/place Basile-Patenaude,,,,orthophotographies,298525.96,5045097.71,-73.580346884987,45.5457650625458
377,388,Rosemont–La Petite-Patrie,Saint-Édouard,,rue Boyer/rue Saint-Zotique Est,,,,orthophotographies,296453.83,5044320.89,-73.6068698015766,45.5387532160116
378,389,Rosemont–La Petite-Patrie,Saint-Émile,,rue Rachel Est/rue Saint-Germain,,,,orthophotographies,300217.04,5045076.75,-73.5586903197493,45.54558963616779
379,390,Rosemont–La Petite-Patrie,Saint-Émile,,rue Rachel Est/rue Saint-Germain,,,,orthophotographies,300174.69,5045100.84,-73.5592328898457,45.54580612668429
380,391,Rosemont–La Petite-Patrie,Soeur-Madeleine-Gagnon (Saint-Jean-De-La-Croix),,rue Saint-Dominique/rue Saint-Zotique Est,,,,orthophotographies,296161.42,5043527.62,-73.6106000094739,45.5316115207103
381,392,Rosemont–La Petite-Patrie,Raymond-Lévesque (Saint-Zotique/23e avenue),,rue Saint-Zotique Est/23e ave,,,,orthophotographies,298235.64,5047195.31,-73.584092936825,45.564637300913105
382,393,Rosemont–La Petite-Patrie,Sainte-Bernadette,,rue Bélanger/19e ave,,,,orthophotographies,297943.84,5046922.54,-73.5878272208381,45.562180015133706
383,394,Rosemont–La Petite-Patrie,Sainte-Bernadette,,rue Bélanger/19e ave,,,localisation approx.,localisation approx.,297935.86,5046842.85,-73.58792832573509,45.5614628598458
384,395,Rosemont–La Petite-Patrie,de l'Ukraine,pataugeoir,rue de Bellechasse/12e ave,,,accès restreint,orthophotographies,298368.77,5046142.78,-73.5823736320395,45.55516753032251
385,396,Rosemont–La Petite-Patrie,de l'Ukraine,,rue de Bellechasse/12e ave,,,localisation approx.,localisation approx.,298379.8,5046136.66,-73.5822322754457,45.5551125622756
386,397,Villeray–Saint-Michel–Parc-Extension,Le Goupillier (jardin),Jardins communautaires,54e rue (#4161),,,accès restreint,orthophotographies,294954.18,5049278.84,-73.62617207194091,45.58334684159679
387,398,Villeray–Saint-Michel–Parc-Extension,Champdoré (jardin),Jardins communautaires,ave Charton (#9400),,,accès restreint,orthophotographies,293735.89,5047243.9,-73.6417380813116,45.56501755125879
388,399,Villeray–Saint-Michel–Parc-Extension,De Lille (jardin),Jardins communautaires,ave Bruchesi (#9400),,,accès restreint,orthophotographies,294055.13,5047840.38,-73.63766154180558,45.5703898594061
389,400,Villeray–Saint-Michel–Parc-Extension,Le Michelois (jardin),Jardins communautaires,,,,accès restreint,orthophotographies,295490.68,5047613.62,-73.6192652314997,45.56837008639621
390,401,Villeray–Saint-Michel–Parc-Extension,Villeray(jardin),Jardins communautaires,ave Christophe-Colomb (#8000),,,accès restreint,orthophotographies,295200.52,5045254.11,-73.622936265893,45.5471345119634
391,402,Villeray–Saint-Michel–Parc-Extension,De Normandville,Jardins communautaires,rue De Normandville (#7955),,,accès restreint,orthophotographies,295409.09,5045398.06,-73.6202679710556,45.5484326662418
392,403,Villeray–Saint-Michel–Parc-Extension,Babylone,Jardins communautaires,ave Ball (#435),,,accès restreint,orthophotographies,294457.89,5043618.84,-73.63241222956341,45.5324091524558
393,404,Villeray–Saint-Michel–Parc-Extension,Jean-Rivard,,rue Jean-Rivard/2e ave,,,localisation approx.,localisation approx.,295660.3,5047070.11,-73.6170820096994,45.56348166192039
394,405,Villeray–Saint-Michel–Parc-Extension,George-Vernot,,13e ave/boul Robert,,,localisation approx.,localisation approx.,295751.08,5047727.33,-73.6159312601328,45.569396718172506
395,406,Villeray–Saint-Michel–Parc-Extension,George-Vernot,,13e ave/boul Robert,,,localisation approx.,localisation approx.,295876.98,5047571.86,-73.6143154435032,45.5679993766769
396,407,Villeray–Saint-Michel–Parc-Extension,George-Vernot,,13e ave/boul Robert,,,localisation approx.,localisation approx.,295767.76,5047617.47,-73.615715533006,45.5684083807586
397,408,Villeray–Saint-Michel–Parc-Extension,Parc-école-Montcalm,,boul Saint-Michel/rue Denis-Papin,,,localisation approx.,localisation approx.,295267.33,5047778.53,-73.622129862506,45.569850973707105
398,409,Villeray–Saint-Michel–Parc-Extension,Sainte-Lucie,,rue Legendre Est/16e ave,,,,orthophotographies,295053.79,5048347.05,-73.62487700677642,45.57496372912129
399,410,Villeray–Saint-Michel–Parc-Extension,Sainte-Lucie,,rue Legendre Est/16e ave,,,localisation approx.,localisation approx.,294975.09,5048369.28,-73.6258858248203,45.5751626544705
400,411,Villeray–Saint-Michel–Parc-Extension,Champdoré,,rue Champdoré/rue de Lille,,,localisation approx.,localisation approx.,294270.82,5047639.24,-73.634893831609,45.568583237911795
401,412,Villeray–Saint-Michel–Parc-Extension,Champdoré,,rue Champdoré/rue de Lille,,,localisation approx.,localisation approx.,294293.79,5047638.89,-73.63459954640459,45.5685804356186
402,413,Villeray–Saint-Michel–Parc-Extension,Ovila-Légaré,,boul Pie-IX/48e rue,,,,orthophotographies,295207.08,5049023.73,-73.62292621056591,45.5810548227385
403,414,Villeray–Saint-Michel–Parc-Extension,Ovila-Légaré,,boul Pie-IX/48e rue,,,,orthophotographies,295288.29,5048985.5,-73.6218848222252,45.580711933288406
404,415,Villeray–Saint-Michel–Parc-Extension,Ovila-Légaré,,boul Pie-IX/48e rue,,,localisation approx.,localisation approx.,295150.63,5049053.53,-73.6236501626927,45.5813221909809
405,416,Villeray–Saint-Michel–Parc-Extension,René-Goupil,,25e ave/boul Robert,,,,orthophotographies,296189.27,5048614.51,-73.610332981208,45.5773853911971
406,417,Villeray–Saint-Michel–Parc-Extension,François-Perrault,,rue François-Perrault/ave Musset,,,localisation approx.,localisation approx.,296941.41,5046942.05,-73.6006686163738,45.562344978183795
407,418,Villeray–Saint-Michel–Parc-Extension,Joseph-Robin,,ave Léonard-De Vinci/rue Everett,,,,orthophotographies,297272.08,5047178.88,-73.5964363825625,45.564479705039396
408,419,Villeray–Saint-Michel–Parc-Extension,du Bon-Air,,rue Everett/8e ave,,,,orthophotographies,296858.74,5046403.4,-73.60171887195949,45.557497091714495
409,420,Villeray–Saint-Michel–Parc-Extension,Gabriel-Sagard,,rue jean-Talon Est/rue Sagard,,,,orthophotographies,296715.46,5045732.23,-73.60354303786659,45.551456030864294
410,421,Villeray–Saint-Michel–Parc-Extension,Nicolas-Tillemont,,rue Tillemont/rue Louis-Hémon,,,,orthophotographies,295994.05,5046207.52,-73.61279106012209,45.555724100145
411,422,Villeray–Saint-Michel–Parc-Extension,CESM (Frédéric-Back),,ave Papineau/ave Émile-Journault,,,localisation approx.,localisation approx.,295274.05,5046711.64,-73.6220229819343,45.560250856940606
412,423,Villeray–Saint-Michel–Parc-Extension,CESM (Frédéric-Back),,ave Papineau/ave Émile-Journault,,,localisation approx.,localisation approx.,295324.09,5046750.55,-73.62138274820941,45.560601664425704
413,424,Villeray–Saint-Michel–Parc-Extension,CESM (Frédéric-Back),,ave Papineau/ave Émile-Journault,,,localisation approx.,localisation approx.,295377.83,5046726.46,-73.6206938969862,45.560385624292095
414,425,Villeray–Saint-Michel–Parc-Extension,Giovannina-Di Tomasso,,rue De Normanville/rue Tillemont,,,,orthophotographies,295433.19,5045369.37,-73.6199587775245,45.548174828427
415,426,Villeray–Saint-Michel–Parc-Extension,Villeray,,rue De Normanville/rue Tillemont,,,,orthophotographies,295380.71,5045354.74,-73.6206305948256,45.5480424749747
416,427,Villeray–Saint-Michel–Parc-Extension,De Normanville,,rue De Normanville/rue Everett,,,,orthophotographies,295766.25,5045130.26,-73.61568894298541,45.5460276343456
417,428,Villeray–Saint-Michel–Parc-Extension,De Normanville,,rue De Normanville/rue Everett,,,localisation approx.,localisation approx.,295736.52,5045112.19,-73.616069338972,45.5458646480595
418,429,Villeray–Saint-Michel–Parc-Extension,De Normanville,,rue De Normanville/rue Everett,,,localisation approx.,localisation approx.,295741.04,5045108.34,-73.61601138350791,45.5458300632341
419,430,Villeray–Saint-Michel–Parc-Extension,de Turin,,rue De Castelnaud Est/rue De Lanaudière,,,,orthophotographies,296121.21,5045122.24,-73.6111430841229,45.54595998076079
420,431,Villeray–Saint-Michel–Parc-Extension,Le Prévost,,ave Christophe-Colomb/rue Jean-Talon Est,,,,orthophotographies,295993.95,5044798.06,-73.6127669768494,45.543041299318
421,432,Villeray–Saint-Michel–Parc-Extension,Victorien-Pesant,,ave De Gaspé/rue De Castelnaud Est,,,,orthophotographies,295493.55,5044192.88,-73.61916339421141,45.5375891714437
422,433,Villeray–Saint-Michel–Parc-Extension,Victorien-Pesant,,ave De Gaspé/rue De Castelnaud Est,,,localisation approx.,localisation approx.,295496.12,5044203.71,-73.61913069279001,45.537686657962105
423,434,Villeray–Saint-Michel–Parc-Extension,Villeray-Ouest,,ave Christophe-Colomb/rue Villeray,,,localisation approx.,localisation approx.,295328.88,5045140.97,-73.621290230788,45.5461181968853
424,435,Villeray–Saint-Michel–Parc-Extension,Jean-Marie_Lamonde,,ave De Chateaubriand/rue Villeray,,,,orthophotographies,295331.96,5044809.15,-73.621244368806,45.543132408157206
425,436,Villeray–Saint-Michel–Parc-Extension,Saint-Vincent-Ferrier,,ave Henri-Julien/rue Jarry Est,,,,orthophotographies,294541.19,5044665.19,-73.6313676467919,45.5418258100068
426,437,Villeray–Saint-Michel–Parc-Extension,des Rêves,,ave De Gaspé/rue Guizot Est,,,,orthophotographies,294401.01,5044646.59,-73.63316230071659,45.5416563624121
427,438,Villeray–Saint-Michel–Parc-Extension,Howard,,ave De L'Épée/rue de Liège Ouest,,,,orthophotographies,293658.98,5043750.33,-73.6426438041746,45.5335800318668
428,439,Villeray–Saint-Michel–Parc-Extension,Jarry,,rue Jarry Ouest/ave de l'Esplanade,,,,orthophotographies,294364.32,5043794.61,-73.6336139681262,45.5339893989269
429,440,Villeray–Saint-Michel–Parc-Extension,Jarry,,rue Jarry Ouest/ave de l'Esplanade,,,,orthophotographies,294590.46,5043690.79,-73.630716412024,45.5330585392605
430,441,Villeray–Saint-Michel–Parc-Extension,Jarry,,rue Jarry Ouest/boul Saint-Laurent,,,,orthophotographies,294625.9,5044211.32,-73.6302734766887,45.5377429717083
431,442,Villeray–Saint-Michel–Parc-Extension,Jarry,,boul Saint-Laurent/rue Villeray,,,,orthophotographies,294852.0,5044077.26,-73.62737568042449,45.5365399172527
432,443,Villeray–Saint-Michel–Parc-Extension,Jarry,,rue Jarry Ouest/boul Saint-Laurent,,,localisation approx.,localisation approx.,294464.15,5043875.73,-73.6323375031515,45.5347208334976
433,444,Villeray–Saint-Michel–Parc-Extension,Jarry,,rue Jarry Ouest/boul Saint-Laurent,,,localisation approx.,localisation approx.,294605.31,5043984.14,-73.6305323892848,45.535698424776704
434,445,Villeray–Saint-Michel–Parc-Extension,Jarry,,rue Jarry Ouest/boul Saint-Laurent,,,localisation approx.,localisation approx.,294940.87,5044098.0,-73.6262381960247,45.536727806283906
435,446,Villeray–Saint-Michel–Parc-Extension,Jarry,,rue Jarry Ouest/boul Saint-Laurent,,,localisation approx.,localisation approx.,295091.89,5044054.94,-73.62430365783759,45.5363424575949
436,447,Villeray–Saint-Michel–Parc-Extension,Jean-Valets,,ave Bloomfield/rue de Liège Ouest,,,,orthophotographies,293743.71,5043632.27,-73.6415563036635,45.532519035530996
437,448,Villeray–Saint-Michel–Parc-Extension,Parc-école Sinclair-Laird,,rue de Liège Ouest/ave Stuart,,,,orthophotographies,293613.52,5043410.72,-73.6432180919895,45.53052337183289
438,449,Villeray–Saint-Michel–Parc-Extension,Barclay,,ave Wiseman/rue Jarry Ouest,,,localisation approx.,localisation approx.,294154.03,5043278.35,-73.63629520235371,45.5293407248877
439,450,Villeray–Saint-Michel–Parc-Extension,De Lestre,,ave Ball/ave Bloomfield,,,,orthophotographies,294388.15,5043390.88,-73.6333002774072,45.530356847600004
440,451,Villeray–Saint-Michel–Parc-Extension,Saint-Roch,,ave Ball/rue Durocher,,,localisation approx.,localisation approx.,294520.14,5043615.8,-73.631615167919,45.5323827184915
441,452,Villeray–Saint-Michel–Parc-Extension,Ogilvy/Outremont,,ave d'Outremont/ave Ogilvy,,,,orthophotographies,294892.9,5042983.75,-73.6268298738134,45.526700700111896
442,453,Villeray–Saint-Michel–Parc-Extension,Birnam,,rue Birnam (face au #7002),,,,orthophotographies,295095.32,5042734.89,-73.6242335867096,45.52446421263289
443,454,Villeray–Saint-Michel–Parc-Extension,Champagneur,,ave Champagneur ( face au #7001),,,,orthophotographies,295199.26,5042935.17,-73.6229069357221,45.5262678463337
444,455,Villeray–Saint-Michel–Parc-Extension,Bloomfield,,ave Bloomfield/rue Jean-Talon Ouest,,,,orthophotographies,295144.54,5043032.37,-73.6236093652309,45.5271417322229
445,456,Villeray–Saint-Michel–Parc-Extension,Athéna,,rue Jean-Talon Ouest/ave De L'Épée,,,,orthophotographies,295107.61,5043093.12,-73.6240833444932,45.527687870672395
446,457,Côte-des-Neiges–Notre-Dame-de-Grâce,William-Bowie,chalet,ave Patricia/ave Fielding,,,,orthophotographies,293134.77,5035350.3,-73.64915581208821,45.45798452999821
447,458,Côte-des-Neiges–Notre-Dame-de-Grâce,Loyola,,ave Doherty/ave Somerled,,,localisation approx.,localisation approx.,293481.99,5035568.54,-73.6447211709131,45.4599540673173
448,459,Côte-des-Neiges–Notre-Dame-de-Grâce,Loyola,baseball,ave Doherty/ave Somerled,,,,orthophotographies,293386.12,5035662.38,-73.6459492163766,45.460796923904894
449,460,Côte-des-Neiges–Notre-Dame-de-Grâce,Loyola,baseball/soccer,ave Fielding/ave Coronation,,,,orthophotographies,293383.88,5035856.04,-73.6459823563478,45.4625395303201
450,461,Côte-des-Neiges–Notre-Dame-de-Grâce,Loyola,jeux d'eau,ave Doherty/ave Fielding,,,,orthophotographies,293307.08,5035665.59,-73.646959972098,45.4608245131598
451,462,Côte-des-Neiges–Notre-Dame-de-Grâce,Gilbert-Layton,soccer,Chemin de la Côte-Saint-Luc/ave Rosedale,,,non-fonctionnelle,orthophotographies,292966.99,5036318.95,-73.65132441620369,45.4666980699798
452,463,Côte-des-Neiges–Notre-Dame-de-Grâce,Gilbert-Layton,chalet,ave de Chester/ave de Mayfair,,,,orthophotographies,293035.26,5036226.07,-73.650449136796,45.4658634465141
453,464,Côte-des-Neiges–Notre-Dame-de-Grâce,Coffee,module de jeux,rue Coffee/ave Elmhurst,,,,orthophotographies,293872.73,5035037.05,-73.639713059221,45.455177688452395
454,465,Côte-des-Neiges–Notre-Dame-de-Grâce,Trenholme,,rue Sherbrooke Ouest/ave King-Edward,,,,orthophotographies,294383.29,5035718.25,-73.6331996295958,45.461315248645704
455,466,Côte-des-Neiges–Notre-Dame-de-Grâce,Trenholme,,rue Sherbrooke Ouest/rue Park Row Est,,,accès restreint - parc à chien,orthophotographies,294476.45,5035721.74,-73.63200845879621,45.4613480362014
456,467,Côte-des-Neiges–Notre-Dame-de-Grâce,Trenholme,soccer,rue Sherbrooke Ouest/rue Park Row Est,,,,orthophotographies,294574.4,5035683.35,-73.6307551653141,45.46100402541679
457,468,Côte-des-Neiges–Notre-Dame-de-Grâce,Trenholme,module de jeux,rue Park Row Ouest/boul De Maisonneuve Ouest,,,,orthophotographies,294479.43,5035611.73,-73.6319680438752,45.460358158206205
458,469,Côte-des-Neiges–Notre-Dame-de-Grâce,Benny,module de jeux,ave Benny/ave de Monkland,,,,orthophotographies,294435.59,5036344.87,-73.6325440780968,45.4669546463596
459,470,Côte-des-Neiges–Notre-Dame-de-Grâce,de la Confédération,module de jeux,ave West Hill/ave Fielding,,,localisation approx.,localisation approx.,293915.38,5036884.56,-73.63920865931242,45.4718031104948
460,471,Côte-des-Neiges–Notre-Dame-de-Grâce,de la Confédération,soccer,,,,localisation approx.,localisation approx.,293689.15,5037066.94,-73.6421061394931,45.473440685186006
461,472,Côte-des-Neiges–Notre-Dame-de-Grâce,de la Confédération,soccer,ave West Hill/ave Fielding,,,localisation approx.,localisation approx.,293848.81,5036974.65,-73.6400620606155,45.47261274029
462,473,Côte-des-Neiges–Notre-Dame-de-Grâce,Somerled,tennis,ave de Hampton (face au #4915),,,,orthophotographies,294233.16,5037166.02,-73.6351504825351,45.4743406956899
463,474,Côte-des-Neiges–Notre-Dame-de-Grâce,Somerled,chalet,ave de Hampton/ave Somerled,,,,orthophotographies,294320.2,5037101.39,-73.63403586043309,45.4737604374909
464,475,Côte-des-Neiges–Notre-Dame-de-Grâce,William-Hurst,chalet,boul Grand/rue de Terrebonn,,,,orthophotographies,294537.34,5036669.02,-73.6312496325473,45.4698730000721
465,476,Côte-des-Neiges–Notre-Dame-de-Grâce,Herbert-Outerbridge,,ave Benny/rue Sherbrooke Ouest,,,,orthophotographies,294858.58,5036171.13,-73.62713121802791,45.46539740144589
466,477,Côte-des-Neiges–Notre-Dame-de-Grâce,Notre-Dame-de-Grâce,module de jeux,ave Marcil/Chemin de la Côte-Saint-Antoine,,,localisation approx.,localisation approx.,295778.39,5036974.16,-73.61538342397101,45.4726359250784
467,478,Côte-des-Neiges–Notre-Dame-de-Grâce,Notre-Dame-de-Grâce,chalet,ave Marcil/Chemin de la Côte-Saint-Antoine,,,,orthophotographies,295821.83,5037010.4,-73.6148285040251,45.47296258911779
468,479,Côte-des-Neiges–Notre-Dame-de-Grâce,Georges-Saint-Pierre,module de jeux/soccer,ave d'Oxford (face au #966),,,,orthophotographies,296375.93,5036515.35,-73.607733232251,45.4685148029846
469,480,Côte-des-Neiges–Notre-Dame-de-Grâce,Maurice-Cullen,chalet,chemin Circle/chemin Mira,,,,orthophotographies,295413.18,5038182.38,-73.6200774195206,45.483503218684795
470,481,Côte-des-Neiges–Notre-Dame-de-Grâce,Macdonald,chalet,ave Clanranald/ave Isabella,,,,orthophotographies,294147.11,5038224.08,-73.63627401254459,45.4838602804565
471,482,Côte-des-Neiges–Notre-Dame-de-Grâce,Macdonald,chalet,ave Clanranald/ave Isabella,,,,orthophotographies,294149.94,5038227.8,-73.6362378913752,45.48389379781771
472,483,Côte-des-Neiges–Notre-Dame-de-Grâce,Macdonald,module de jeux,ave Clanranald/ave Isabella,,,localisation approx.,localisation approx.,294212.23,5038168.76,-73.6354397933304,45.4833634777392
473,484,Côte-des-Neiges–Notre-Dame-de-Grâce,Mackenzie-King,chalet,ave Saint-Kevin/ave de Westbury,,,,orthophotographies,294400.51,5038853.58,-73.63304580934009,45.489528614407206
474,485,Côte-des-Neiges–Notre-Dame-de-Grâce,Mackenzie-King,module de jeux,ave Saint-Kevin/ave de Westbury,,,,orthophotographies,294359.38,5038802.48,-73.6335709174683,45.4890681806789
475,486,Côte-des-Neiges–Notre-Dame-de-Grâce,Mackenzie-King,soccer,rue Beaucourt/chemin de la Côte-Sainte-Catherine,,,,orthophotographies,294378.6,5039033.73,-73.6333299387297,45.4911493540221
476,487,Côte-des-Neiges–Notre-Dame-de-Grâce,Van Horne,,ave de Westbury/ave Van Horne,,,,orthophotographies,293900.97,5039033.86,-73.6394406554285,45.491143227900494
477,488,Côte-des-Neiges–Notre-Dame-de-Grâce,Van Horne,jeux d'eau,ave Van Horne/rue Lemieux,,,localisation approx.,localisation approx.,293998.18,5039143.81,-73.6381993877221,45.4921341158102
478,489,Côte-des-Neiges–Notre-Dame-de-Grâce,Nelson-Mandela,module de jeux,ave Barclay/rue Lemieux,,,localisation approx.,localisation approx.,293629.52,5039501.58,-73.64292418316441,45.4953476756889
479,490,Côte-des-Neiges–Notre-Dame-de-Grâce,Nelson-Mandela,,ave Victoria/rue Bouchette,,,,orthophotographies,293685.03,5039598.46,-73.64221613974308,45.4962203284726
480,491,Côte-des-Neiges–Notre-Dame-de-Grâce,Rosemary-Brown (Mclynn),jeux d'eau,place Kenmore,,,,orthophotographies,293261.28,5038890.0,-73.6476213509107,45.48983843166779
481,492,Côte-des-Neiges–Notre-Dame-de-Grâce,Rosemary-Brown (Mclynn),,ave Mclynn/ave Plamondon,,,,orthophotographies,293273.02,5038846.3,-73.64747012880359,45.489445394646104
482,493,Côte-des-Neiges–Notre-Dame-de-Grâce,Rosemary-Brown (Mclynn),pétanque,ave Mclynn/rue Vézina,,,,orthophotographies,293148.99,5038927.66,-73.6490588291923,45.4901754466191
483,494,Côte-des-Neiges–Notre-Dame-de-Grâce,de la Savane,jardins communautaires,rue de la Savane/place de la Savane,,,,orthophotographies,292695.91,5039893.62,-73.6548791752758,45.498859840567
484,495,Côte-des-Neiges–Notre-Dame-de-Grâce,Roméo-Charrette,module de jeux,ave Glencoe/boul Laird,,,,orthophotographies,293728.31,5040730.98,-73.64168793271759,45.5064118906896
485,496,Côte-des-Neiges–Notre-Dame-de-Grâce,de Dunkerque,module de jeux,ave Kirkfield/rue de Tilly,,,,orthophotographies,294310.7,5041398.89,-73.63424921101729,45.5124310102667
486,497,Côte-des-Neiges–Notre-Dame-de-Grâce,de Kent,piscine,chemin Hudson/ave de Kent,,,accès restreint,orthophotographies,294657.26,5040653.33,-73.6297982908987,45.5057272916214
487,498,Côte-des-Neiges–Notre-Dame-de-Grâce,de Kent,baseball/soccer,ave de Kent/ave Decelles,,,,orthophotographies,294471.11,5040352.85,-73.6321741489223,45.503020719471905
488,499,Côte-des-Neiges–Notre-Dame-de-Grâce,de Kent,soccer,ave Appleton/ave Decelles,,,,orthophotographies,294401.43,5040461.31,-73.633068109282,45.5039956512988
489,500,Côte-des-Neiges–Notre-Dame-de-Grâce,de Kent,tennis,ave Appleton/chemin Hudson,,,localisation approx.,localisation approx.,294523.84,5040659.72,-73.6315058176878,45.505782838578206
490,501,Côte-des-Neiges–Notre-Dame-de-Grâce,Mahatma-Gandhi,,ave Van Horne/ave Linton,,,localisation approx.,localisation approx.,294792.27,5040797.37,-73.62807348953521,45.5070253716403
491,502,Côte-des-Neiges–Notre-Dame-de-Grâce,place de Darlington,module de jeux,place de Darlington (face au #2795),,,,orthophotographies,294834.35,5041107.03,-73.6275412666725,45.5098124185075
492,503,Côte-des-Neiges–Notre-Dame-de-Grâce,Jean-Brillant,,ave Swail/ave Gatineau,,,,orthophotographies,295453.54,5039618.18,-73.61958846853071,45.4964237079328
493,504,Côte-des-Neiges–Notre-Dame-de-Grâce,Jean-Brillant,jeux d'eau,ave Decelles/rue Jean-Brillant,,,,orthophotographies,295460.34,5039706.6,-73.6195031452835,45.4972194393272
494,505,Côte-des-Neiges–Notre-Dame-de-Grâce,De Sousa-Mendes,module de jeux,rue Plantagenet/ave De Soissons,,,,orthophotographies,295267.37,5040995.5,-73.6219972834211,45.5088148800661
495,506,Mercier–Hochelaga-Maisonneuve,de la Promenade-Bellerive,chalet,rue Bellerive/rue Mousseau,,,,orthophotographies,304052.72,5051156.74,-73.50957911875541,45.6003140046242
496,507,Mercier–Hochelaga-Maisonneuve,de la Promenade-Bellerive,,rue Bellerive/ave Mercier,,,,orthophotographies,304094.98,5050583.54,-73.5090365747883,45.595156234479106
497,508,Mercier–Hochelaga-Maisonneuve,Louis-Riel,soccer,ave de Carignan/ave Pérodeau,,,,orthophotographies,300595.32,5049150.95,-73.5538810255407,45.582253018214395
498,509,Mercier–Hochelaga-Maisonneuve,Louis-Riel,baseball,ave de Carignan/rue Gérin-Lajoie,,,,orthophotographies,300679.12,5049137.33,-73.55280705294679,45.5821309627958
499,510,Mercier–Hochelaga-Maisonneuve,Louis-Riel,tennis,rue Gérin-Lajoie/ave Louis-Joseph-Doucet,,,,orthophotographies,300627.71,5049034.46,-73.5534649679647,45.5812050010457
500,511,Mercier–Hochelaga-Maisonneuve,Louis-Riel,terrain d'athlétisme,ave de Carignan/ave Pérodeau,,,,orthophotographies,300529.99,5049117.21,-73.5547179039095,45.5819490176114
501,512,Mercier–Hochelaga-Maisonneuve,Louis-Riel,baseball,rue Du Quesne/rue Pierre-Bédard,,,,orthophotographies,300516.15,5049089.32,-73.5548950114825,45.581697969897206
502,513,Mercier–Hochelaga-Maisonneuve,Louis-Riel,,rue Du Quesne/rue Pierre-Bédard,,,localisation approx.,localisation approx.,300475.87,5049007.29,-73.55541044960171,45.5809595899697
503,514,Mercier–Hochelaga-Maisonneuve,Louis-Riel,,rue Du Quesne/rue Pierre-Bédard,,,localisation approx.,localisation approx.,300479.13,5049018.01,-73.5553687700059,45.5810560720294
504,515,Mercier–Hochelaga-Maisonneuve,Hector-Vinet,,rue Hochelaga/ave Hector,,,,orthophotographies,303636.83,5052285.02,-73.5149129556681,45.610465999057205
505,516,Mercier–Hochelaga-Maisonneuve,Saint-Victor,baseball,ave Pierre-De Coubertin/rue Aubry,,,,orthophotographies,303358.0,5051999.8,-73.5184869805495,45.607898992214096
506,517,Mercier–Hochelaga-Maisonneuve,Saint-Victor,,rue Hochelaga/rue Taillon,,,localisation approx.,localisation approx.,303424.16,5051904.79,-73.5176385166422,45.607044201204204
507,518,Mercier–Hochelaga-Maisonneuve,Pierre-Bernard,chalet,rue De Teck/boul Pierre-Bernard,,,,orthophotographies,302765.13,5051801.26,-73.5260869674062,45.606110993856404
508,519,Mercier–Hochelaga-Maisonneuve,Pierre-Bernard,,boul Pierre-Bernard/rue de Marseille,,,,orthophotographies,302855.14,5051776.78,-73.5249329446539,45.605890973964996
509,520,Mercier–Hochelaga-Maisonneuve,Pierre-Bernard,baseball,rue de Marseille/rue French,,,,orthophotographies,302871.72,5051679.09,-73.52472000435371,45.6050119794155
510,521,Mercier–Hochelaga-Maisonneuve,Sainte-Claire,module de jeux,ave Pierre-De Coubertin/ave Mercier,,,,orthophotographies,302945.89,5051089.95,-73.5237669275443,45.5997109390371
511,522,Mercier–Hochelaga-Maisonneuve,Clément-Jetté (Sud),,rue Notre-Dame Est/boul Pierre-Bernard,,,,orthophotographies,303928.71,5051341.68,-73.5111690893677,45.6019780012265
512,523,Mercier–Hochelaga-Maisonneuve,Pierre-Tétreault,,rue Notre-Dame Est/rue Baldwin,,,,orthophotographies,303928.42,5050905.04,-73.5111720271025,45.59804899334021
513,524,Mercier–Hochelaga-Maisonneuve,Honoré-Mercier,,rue Notre-Dame Est/rue Liébert,,,,orthophotographies,304019.16,5050289.35,-73.5100079250395,45.5925089475737
514,525,Mercier–Hochelaga-Maisonneuve,De La Bruère,,ave Dubuisson/rue Liébert,,,,orthophotographies,303245.22,5050504.55,-73.5199280985572,45.594444079200294
515,526,Mercier–Hochelaga-Maisonneuve,Liébert,baseball,rue Liébert/rue Sainte-CLaire,,,,orthophotographies,302688.17,5050757.86,-73.5270690767212,45.596721965613796
516,527,Mercier–Hochelaga-Maisonneuve,Liébert,module de jeux,rue Cirier/ave Pierre-De Coubertin,,,,orthophotographies,302729.0,5050605.71,-73.5265450792913,45.5953529997929
517,528,Mercier–Hochelaga-Maisonneuve,Michel-Bourdon,module de jeux,rue Joseph-A.-Rodier,,,,orthophotographies,301834.85,5050642.52,-73.5380060842325,45.5956809885948
518,529,Mercier–Hochelaga-Maisonneuve,Radisson,,rue Radisson (face au #5260),,,,orthophotographies,301286.3,5050060.69,-73.54503298514591,45.5904429608722
519,530,Mercier–Hochelaga-Maisonneuve,Beauclerk,chalet,ave Émile-Legrand/rue La Fontaine,,,,orthophotographies,303251.72,5048974.81,-73.5198399362237,45.5806790403871
520,531,Mercier–Hochelaga-Maisonneuve,Carlos-D'Alcantara,chalet,rue De Contreceour,,,,orthophotographies,302183.83,5052627.44,-73.5335436444706,45.6135432313126
521,532,Mercier–Hochelaga-Maisonneuve,Carlos-D'Alcantara,soccer,rue De Contreceour/rue Rousseau,,,,orthophotographies,301986.33,5052677.86,-73.53607621289349,45.6139961516469
522,533,Mercier–Hochelaga-Maisonneuve,Rougemont,chalet,rue Bossuet/rue Ontario Est,,,,orthophotographies,302623.07,5047738.43,-73.52789006098709,45.569552020424794
523,534,Mercier–Hochelaga-Maisonneuve,Rougemont,,rue La Fontaine/ave Rougemont,,,,orthophotographies,302713.36,5047658.27,-73.5267329552429,45.56883099128161
524,535,Mercier–Hochelaga-Maisonneuve,Olivier-Guimond,,rue Dickson/rue Boileau,,,,orthophotographies,301534.01,5047928.72,-73.5418439827306,45.5712600524749
525,536,Mercier–Hochelaga-Maisonneuve,Thibodeau,,ave Pierre-De Coubertin/rue Lacordaire,,,,orthophotographies,301639.22,5048073.8,-73.5404969669424,45.572566014392
526,537,Mercier–Hochelaga-Maisonneuve,Jean-Amyot,,rue Du Quesne/ave Pierre-De Coubertin,,,,orthophotographies,301727.97,5048410.37,-73.5393619883193,45.575594974959294
527,538,Mercier–Hochelaga-Maisonneuve,Jean-Amyot,bocce,rue Du Quesne/rue de Marseille,,,,orthophotographies,301668.98,5048433.74,-73.54011797804671,45.57580500260139
528,539,Mercier–Hochelaga-Maisonneuve,Jean-Amyot,baseball,rue de Marseille/ave de la Pépinière,,,,orthophotographies,301638.76,5048550.11,-73.5405059417569,45.5768519995382
529,540,Mercier–Hochelaga-Maisonneuve,Saint-Donat,,rue Arcand/rue de Marseille,,,,orthophotographies,301905.85,5049274.57,-73.5370879277236,45.5833720748228
530,541,Mercier–Hochelaga-Maisonneuve,Saint-Donat,soccer,rue Arcand/rue de Marseille,,,,orthophotographies,301972.39,5049238.08,-73.536235020468,45.583044000445796
531,542,Mercier–Hochelaga-Maisonneuve,Saint-Donat,,ave Parkville/ave Pierre-De Coubertin,,,,orthophotographies,301983.35,5049133.94,-73.5360939707286,45.5821069616719
532,543,Mercier–Hochelaga-Maisonneuve,Guillaume-Couture,,ave Rodolphe-Mathieu/ave Albani,,,,orthophotographies,299966.46,5049297.54,-73.5619410210712,45.58356799372089
533,544,Mercier–Hochelaga-Maisonneuve,Guillaume-Couture,module de jeux,rue Du Quesne/ave De Charette,,,,orthophotographies,299998.22,5049202.61,-73.56153308895121,45.5827140052139
534,545,Mercier–Hochelaga-Maisonneuve,Francesca-Cabrini,,ave Rodolphe-Mathieu/rue De Cadillac,,,,orthophotographies,299864.82,5049152.93,-73.563242059172,45.582266036137504
535,546,Mercier–Hochelaga-Maisonneuve,Pierre-Bédard,chalet,rue Lacordaire/rue Gérin-Lajoie,,,,orthophotographies,300564.07,5048633.54,-73.5542769935438,45.57759701586679
536,547,Mercier–Hochelaga-Maisonneuve,rue Chauveau (Îlot de voirie),,rue Chauveau/boul de L'Assomption,,,Îlot de voirie aménagé,orthophotographies,300969.96,5047594.08,-73.54906798738341,45.568245978574
537,548,Mercier–Hochelaga-Maisonneuve,Théodore,,rue Théodore/rue Hochelaga,,,,orthophotographies,301319.58,5046772.84,-73.54458303855641,45.5608580259665
538,549,Mercier–Hochelaga-Maisonneuve,Théodore,,rue Théodore/rue Hochelaga,,,,orthophotographies,301392.48,5046738.57,-73.5436489749653,45.5605500136057
539,550,Mercier–Hochelaga-Maisonneuve,Saint-Clément,baseball,rue Ontario Est/rue Ida-Steinberg,,,,orthophotographies,302123.51,5046775.11,-73.5342849735207,45.5608820070611
540,551,Mercier–Hochelaga-Maisonneuve,Saint-Clément,module de jeux,rue La Fontaine/rue Vimont,,,,orthophotographies,302204.66,5046685.28,-73.533244991666,45.56007399362121
541,552,Mercier–Hochelaga-Maisonneuve,Ovila-Pelletier,module de jeux,ave Bennett/rue Ontario Est,,,,orthophotographies,301702.41,5046115.62,-73.5396749509618,45.5549459447007
542,553,Mercier–Hochelaga-Maisonneuve,Morgan,chalet,ave Morgan/rue Sainte-Catherinre Est,,,,orthophotographies,302222.14,5045724.76,-73.5330160200404,45.5514309678741
543,554,Mercier–Hochelaga-Maisonneuve,Morgan,,ave Morgan/rue Sainte-Catherinre Est,,,localisation approx.,localisation approx.,302264.27,5045660.64,-73.532476106583,45.550854148172704
544,555,Mercier–Hochelaga-Maisonneuve,Jacques-Blanchet,,ave Jeanne-D'Arc/rue Ontario Est,,,,orthophotographies,301600.64,5045435.96,-73.54097400999841,45.5488296655289
545,556,Mercier–Hochelaga-Maisonneuve,de Saint-Aloysius,chalet,ave Valois/rue Drouin,,,,orthophotographies,301603.4,5045125.55,-73.5409366353322,45.5460364979809
546,557,Mercier–Hochelaga-Maisonneuve,Lalancette,,rue Hochelaga/rue Nicolet,,,,orthophotographies,301001.52,5045445.89,-73.548646978111,45.5489160093782
547,558,Mercier–Hochelaga-Maisonneuve,Lalancette,,rue Hochelaga/rue Nicolet,,,,orthophotographies,300985.25,5045404.89,-73.5488550276493,45.5485469879117
548,559,Mercier–Hochelaga-Maisonneuve,Lalancette,,rue Hochelaga/rue Nicolet,,,,orthophotographies,300934.32,5045442.22,-73.54950757645241,45.5488826156777
549,560,Mercier–Hochelaga-Maisonneuve,Edmond-Hamelin,,rue Sainte-Catherine Est/rue Joliette,,,,orthophotographies,301805.56,5044839.23,-73.5383459616175,45.5434609853184
550,561,Mercier–Hochelaga-Maisonneuve,Hochelaga,,rue Darling/rue Utilités publiques (La Fontaine),,,,orthophotographies,301351.32,5044709.1,-73.5441619136741,45.5422879274473
551,562,Mercier–Hochelaga-Maisonneuve,Hochelaga,,rue Darling/rue Utilités publiques,,,,orthophotographies,301398.38,5044659.63,-73.5435589454245,45.541843009664895
552,563,Mercier–Hochelaga-Maisonneuve,Square Dézéry,,rue Dézéry/rue John-Easton-Mills,,,,orthophotographies,301657.97,5044380.44,-73.5402330128322,45.5393319742965
553,564,Mercier–Hochelaga-Maisonneuve,Raymond-Préfontaine,,rue Dézéry/rue de Rouen,,,,orthophotographies,300696.41,5044691.24,-73.5525481806766,45.5421236667093
554,565,Mercier–Hochelaga-Maisonneuve,Raymond-Préfontaine,,rue de Rouen/rue Préfontaine,,,,orthophotographies,300715.93,5044600.26,-73.55229746002959,45.5413051101424
555,566,Mercier–Hochelaga-Maisonneuve,place Valois,,ave Valois/rue Ontario Est,,,,orthophotographies,301391.13,5045269.97,-73.5436560348929,45.5473350344335
556,567,Mercier–Hochelaga-Maisonneuve,Thomas-Chapais,chalet,boul Pierre-Bernard/rue Tiffin,,,,orthophotographies,301963.85,5052085.07,-73.53636099916899,45.608661983424795
557,568,Mercier–Hochelaga-Maisonneuve,Thomas-Chapais,chalet,boul Pierre-Bernard/rue De Gadbois,,,,orthophotographies,302191.89,5052016.29,-73.5334370340459,45.6080439760825
558,569,Anjou,du Fort-Des Ormeaux,chalet,"7775, ave Des Ormeaux",,,,orthophotographies,300464.16,5052775.7,-73.555593979747,45.6148687100366
559,570,Anjou,de Peterborough,,8400 boul de Châteauneuf,,,localisation approx.,localisation approx.,300474.57,5052308.53,-73.5554563599513,45.6106650613223
560,571,Anjou,Des Roseraies,baseball,7070 ave de la Nantaise,,,,orthophotographies,300482.47,5050476.49,-73.5553388646129,45.59417992203711
561,572,Anjou,Des Roseraies,baseball,7070 ave de la Nantaise,,,,orthophotographies,300485.68,5050478.34,-73.55529773760641,45.594196588781394
562,573,Anjou,Des Roseraies,tennis,7070 ave de la Nantaise,,,localisation approx.,localisation approx.,300592.24,5050350.34,-73.55393082837159,45.5930454615199
563,574,Anjou,André-Laurendeau,,8361 ave André-Laurendeau,,,localisation approx.,localisation approx.,299372.19,5051516.82,-73.56958116170901,45.60353331447829
564,575,Anjou,André-Laurendeau,,8361 ave André-Laurendeau,,,localisation approx.,localisation approx.,299297.96,5051674.94,-73.5705345265965,45.6049555363222
565,576,Anjou,André-Laurendeau,pataugeoire,8361 ave André-Laurendeau,,,localisation approx.,localisation approx.,299289.03,5051692.15,-73.5706492008561,45.60511032567221
566,577,Anjou,Lucie-Bruneau,baseball#1,7051 ave de l'Alsace,,,,orthophotographies,298232.61,5051581.18,-73.58419072306809,45.604102610662295
567,578,Anjou,Lucie-Bruneau,baseball#1,7051 ave de l'Alsace,,,,orthophotographies,298233.22,5051582.39,-73.5841829194599,45.6041135043204
568,579,Anjou,Lucie-Bruneau,baseball#2,7051 ave de l'Alsace,,,,orthophotographies,298188.54,5051754.91,-73.5847580323684,45.60566546049721
569,580,Anjou,Lucie-Bruneau,baseball#2,7051 ave de l'Alsace,,,,orthophotographies,298190.33,5051755.25,-73.58473508943929,45.6056685369281
570,581,Anjou,d'Antioche,pétanque,6995 place d'Antioche,,,,orthophotographies,300174.08,5050646.22,-73.55929318286941,45.595705216983795
571,582,Anjou,de Spalding,,7901 ave Spalding,,,localisation approx. / travaux prévus en 2019,localisation approx.,300719.94,5051439.62,-73.55230320458209,45.602847864937104
572,583,Anjou,de Talcy,chalet,8151 ave de Talcy,,,,orthophotographies,300166.04,5051934.91,-73.559408473375,45.607301143545996
573,584,Anjou,de Talcy,chalet,8151 ave de Talcy,,,,orthophotographies,300171.27,5051937.99,-73.5593414527856,45.607328893036396
574,585,Anjou,de Verdelles,,8441 place Verdelles,,,,orthophotographies,300919.5,5052039.85,-73.54974977507909,45.6082500359404
575,586,Anjou,du Bocage,chalet,6200 ave du Bocage,,,,orthophotographies,300749.4,5050299.75,-73.55191609095701,45.592591171481196
576,587,Anjou,du Bocage,chalet / piscine,6200 ave du Bocage,,,accès restreint,orthophotographies,300758.76,5050292.43,-73.55179606433501,45.5925253584912
577,588,Anjou,Roger-Rousseau,baseball,7501 ave Rondeau,,,,orthophotographies,300962.21,5052913.57,-73.5492090886832,45.6161122277952
578,589,Anjou,Roger-Rousseau,baseball,7501 ave Rondeau,,,,orthophotographies,300874.55,5053085.01,-73.5503344665244,45.617654397516404
579,590,Anjou,Roger-Rousseau,,7501 ave Rondeau,,,localisation approx.,localisation approx.,300892.31,5052914.25,-73.5501053688075,45.6161179570206
580,591,Anjou,Goncourt,tennis,7130 ave Goncourt,,,localisation approx.,localisation approx.,300341.85,5051415.95,-73.5571498065456,45.602632554067604
581,592,Anjou,Du Mail (Chénier),,5555 ave de l'Aréna,,,localisation approx.,localisation approx.,301394.05,5051423.14,-73.54366152499449,45.6027032030283
582,593,Anjou,Bibliothèque Jean-Corbeil,cour arrière,7500 ave Goncourt,,,localisation approx.,localisation approx.,300262.74,5051388.48,-73.5581636755663,45.602384859811
583,594,Ville-Marie,place Jacques-Cartier,,place Jacques-Cartier/rue Notre-Dame Est,,,abreuvoir à chevaux,orthophotographies,300633.58,5040895.9,-73.5533204713075,45.5079713384388
584,595,Ville-Marie,champ de mars,,rue Saint-Antoine Est/ave de l'Hôtel-de-ville,,,localisation approx.,localisation approx.,300470.99,5040960.77,-73.5554018162688,45.50855407559529
585,596,Ville-Marie,Charles-S.-Cambell,,rue Alexandre-DeSève/rue Gareau,,,localisation approx.,localisation approx.,300694.21,5042354.76,-73.5525567668808,45.5210991158927
586,597,Ville-Marie,square des Frères-Charron,,rue des Soeurs-Grises/rue Marguerite-D'Youville,,,,orthophotographies,300525.45,5039892.21,-73.55469553645409,45.498939054439404
587,598,Ville-Marie,Joe-Montferrand,,rue Frontenac/rue Sainte-Catherine Est,,,,orthophotographies,301240.1,5043366.05,-73.5455763721019,45.5302021006045
588,599,Ville-Marie,Médéric-Martin,,ave Gascon/rue de Rouen,,,,orthophotographies,300562.07,5043883.17,-73.55426146538359,45.534851549467106
589,600,Ville-Marie,Olivier-Robert,,rue Fullum/boul De Maisonneuve Est,,,,orthophotographies,300920.47,5043123.85,-73.54966658311979,45.5280209856489
590,601,Ville-Marie,Espace Pierre-Bourgault,,rue Alexandre-DeSève/rue La Fontaine,,,,orthophotographies,300179.09,5042607.92,-73.5591530198252,45.5233739255403
591,602,Ville-Marie,Berthier,,rue Berthier/rue de la Visitation,,,,orthophotographies,299923.16,5042547.48,-73.5624286179191,45.52282831916511
592,603,Ville-Marie,Brennan/Duke,parc à chien,rue Duke/rue Brennan,,,,orthophotographies,300590.59,5039507.55,-73.55385873000941,45.4954781122937
593,604,Ville-Marie,des Faubourgs,,rue Dorion/rue Ontario Est,,,,orthophotographies,300300.39,5042993.72,-73.5576037825965,45.5268462982269
594,605,Ville-Marie,des Royaux,,ave De Lorimier/rue de Rouen,,,,orthophotographies,300143.59,5043305.41,-73.559614089924,45.5296499751319
595,606,Ville-Marie,des Vétérans,,ave Papineau/rue Logan,,,localisation approx.,localisation approx.,300503.05,5042688.46,-73.55500666349059,45.5241007283337
596,607,Ville-Marie,Fleury-Mesplet,,rue de la Commune Est/rue Berri,,,,orthophotographies,300867.61,5041218.45,-73.550328020212,45.5108751364879
597,608,Ville-Marie,Jean-Narrache,,rue Saint-Timothée/rue Labrecque,,,,orthophotographies,299722.54,5042293.44,-73.5649941285869,45.52054093454
598,609,Ville-Marie,des Joyeux-Vikings,,rue Beaudry/rue Robin,,,localisation approx.,localisation approx.,300125.1,5042327.9,-73.5598414828981,45.5208538349453
599,610,Ville-Marie,Percy-Walters,parc à chien,ave du Docteur-Penfield/rue Redpath,,,localisation approx.,localisation approx.,298139.74,5039980.01,-73.585223349597,45.4997104206882
600,611,Ville-Marie,Percy-Walters,,ave du Docteur-Penfield/rue Redpath,,,localisation approx.,localisation approx.,298183.1,5039959.73,-73.5846682508461,45.4995283451997
601,612,Ville-Marie,Persillier-Lachapelle,,rue Alexandre-DeSève/rue Ontario Est (nord de),,,,orthophotographies,299966.78,5042751.1,-73.5618722453717,45.5246608755873
602,613,Ville-Marie,école Pierre-Dupuy,,ave De Lorimier/rue Ontario Est,,,localisation approx. /privé,localisation approx.,300265.13,5043222.21,-73.5580572942047,45.52890211100679
603,614,Ville-Marie,place d'Armes,,rue Notre-Dame Ouest/place d'Armes,,,,orthophotographies,300320.48,5040522.41,-73.557324008823,45.5046085777017
604,615,Ville-Marie,De La Dauversière,,rue Le Royer Est/Place Jacques-Cartier,,,,orthophotographies,300614.99,5040929.18,-73.5535586639057,45.5082706945016
605,616,Ville-Marie,De La Dauversière,,rue Le Royer Est/Place Jacques-Cartier,,,,orthophotographies,300645.82,5040943.81,-73.5531642337277,45.5084025256666
